$GPGGA,204151.000,4433.9957717,N,12317.6176961,W,0,00,0.0,51.140,M,0.000,M,,0000*40
$GPGLL,4433.9957717,N,12317.6176961,W,204151.000,V,N*5D
$GPGSA,A,1,,,,,,,,,,,,,0.0,0.0,0.0*30
$GLGSA,A,1,,,,,,,,,,,,,0.0,0.0,0.0*2C
$GPRMC,204151.000,V,4433.9957717,N,12317.6176961,W,000.00,000.00,220519,,,N*67
$GPVTG,000.00,T,,M,000.00,N,000.00,K,N*32
$GPZDA,204151.000,22,05,2019,00,00*5A
$GPGST,204151.000,,,,,,,*4A
$PSTI,030,204151.000,V,4433.9957717,N,12317.6176961,W,51.140,0.00,0.00,0.00,220519,N,0.0,0.0*2C
$GPGGA,204152.000,4433.9957717,N,12317.6176961,W,0,00,0.0,51.140,M,0.000,M,,0000*43
$GPGLL,4433.9957717,N,12317.6176961,W,204152.000,V,N*5E
$GPGSA,A,1,,,,,,,,,,,,,0.0,0.0,0.0*30
$GLGSA,A,1,,,,,,,,,,,,,0.0,0.0,0.0*2C
$GPGSV,3,1,12,19,65,047,,24,57,266,,06,54,133,,17,43,053,18*7E
$GPGSV,3,2,12,12,36,298,,02,32,180,,28,16,101,,03,05,045,*7E
$GPGSV,3,3,12,32,03,334,,15,02,229,,25,01,293,,22,00,026,*79
$GLGSV,3,1,10,86,66,035,,76,57,134,,77,54,325,,87,49,215,*6A
$GLGSV,3,2,10,75,14,138,,85,10,035,,69,05,52.000,V,4433.9957717,N,12317.6176961,W,51.140,0.00,0.00,0.00,220519,N,0.0,0.0*2F
$GPGGA,204153.000,4433.9957717,N,12317.6176961,W,0,00,0.0,51.140,M,0.000,M,,0000*42
$GPGLL,4433.9957717,N,12317.6176961,W,204153.000,V,N*5F
$GPGSA,A,1,,,,,,,,,,,,,0.0,0.0,0.0*30
$GLGSA,A,1,,,,,,,,,,,,,0.0,0.0,0.0*2C
$GPRMC,204153.000,V,4433.9957717,N,12317.6176961,W,000.00,000.00,220519,,,N*65
$GPVTG,000.00,T,,M,000.00,N,000.00,K,N*32
$GPZDA,204153.000,22,05,2019,00,00*58
$GPGST,204153.000,,,,,,,*48
$PSTI,030,204153.000,V,4433.9957717,N,12317.6176961,W,51.140,0.00,0.00,0.00,220519,N,0.0,0.0*2E
$GPGGA,204154.000,4433.9957717,N,12317.6176961,W,0,00,0.0,51.140,M,0.000,M,,0000*45
$GPGLL,4433.9957717,N,12317.6176961,W,204154.000,V,N*58
$GPGSA,A,1,,,,,,,,,,,,,0.0,0.0,0.0*30
$GLGSA,A,1,,,,,,,,,,,,,0.0,0.0,0.0*2C
$GPRMC,204154.000,V,4433.9957717,N,12317.6176961,W,000.00,000.00,220519,,,N*62
$GPVTG,000.00,T,,M,000.00,N,000.00,K,N*32
$GPZDA,204154.000,22,05,2019,00,00*5F
$GPGST,204154.000,,,,,,,*4F
$PSTI,030,204154.000,V,4433.9957717,N,12317.6176961,W,51.140,0.00,0.00,0.00,220519,N,0.0,0.0*29
$GPGGA,204155.000,4433.9957717,N,12317.6176961,W,0,00,0.0,51.140,M,0.000,M,,0000*44
$GPGLL,4433.9957717,N,12317.6176961,W,204155.000,V,N*59
$GPGSA,A,1,,,,,,,,,,,,,0.0,0.0,0.0*30
$GLGSA,A,1,,,,,,,,,,,,,0.0,0.0,0.0*2C
$GPGSV,3,1,12,19,65,047,,24,57,266,,06,54,133,,17,43,053,22*77
$GPGSV,3,2,12,12,36,298,,02,32,180,,28,16,101,,03,05,045,*7E
$GPGSV,3,3,12,32,03,334,,15,02,229,,25,01,293,,22,00,026,*79
$GLGSV,3,1,10,86,66,035,,76,57,134,,77,54,325,,87,49,215,*6A
$GLGSV,3,2,10,75,14,138,,85,10,035,,69,05,55.000,V,4433.9957717,N,12317.6176961,W,51.140,0.00,0.00,0.00,220519,N,0.0,0.0*28
$GPGGA,204156.000,4433.9957717,N,12317.6176961,W,0,00,0.0,51.140,M,0.000,M,,0000*47
$GPGLL,4433.9957717,N,12317.6176961,W,204156.000,V,N*5A
$GPGSA,A,1,,,,,,,,,,,,,0.0,0.0,0.0*30
$GLGSA,A,1,,,,,,,,,,,,,0.0,0.0,0.0*2C
$GPRMC,204156.000,V,4433.9957717,N,12317.6176961,W,000.00,000.00,220519,,,N*60
$GPVTG,000.00,T,,M,000.00,N,000.00,K,N*32
$GPZDA,204156.000,22,05,2019,00,00*5D
$GPGST,204156.000,,,,,,,*4D
$PSTI,030,204156.000,V,4433.9957717,N,12317.6176961,W,51.140,0.00,0.00,0.00,220519,N,0.0,0.0*2B
$GPGGA,204157.000,4433.9957717,N,12317.6176961,W,0,00,0.0,51.140,M,0.000,M,,0000*46
$GPGLL,4433.9957717,N,12317.6176961,W,204157.000,V,N*5B
$GPGSA,A,1,,,,,,,,,,,,,0.0,0.0,0.0*30
$GLGSA,A,1,,,,,,,,,,,,,0.0,0.0,0.0*2C
$GPRMC,204157.000,V,4433.9957717,N,12317.6176961,W,000.00,000.00,220519,,,N*61
$GPVTG,000.00,T,,M,000.00,N,000.00,K,N*32
$GPZDA,204157.000,22,05,2019,00,00*5C
$GPGST,204157.000,,,,,,,*4C
$PSTI,030,204157.000,V,4433.9957717,N,12317.6176961,W,51.140,0.00,0.00,0.00,220519,N,0.0,0.0*2A
$GPGGA,204158.000,4433.9957717,N,12317.6176961,W,0,00,0.0,51.140,M,0.000,M,,0000*49
$GPGLL,4433.9957717,N,12317.6176961,W,204158.000,V,N*54
$GPGSA,A,1,,,,,,,,,,,,,0.0,0.0,0.0*30
$GLGSA,A,1,,,,,,,,,,,,,0.0,0.0,0.0*2C
$GPGSV,3,1,12,19,65,047,,24,57,266,,06,54,133,,17,43,053,21*74
$GPGSV,3,2,12,12,36,298,,02,32,180,,28,16,101,,03,05,045,*7E
$GPGSV,3,3,12,32,03,334,,15,02,229,,25,01,293,,22,00,026,*79
$GLGSV,3,1,10,86,66,035,,76,57,134,,77,54,325,,87,49,215,*6A
$GLGSV,3,2,10,75,14,138,,85,10,035,,69,05,204158.000,V,4433.9957717,N,12317.6176961,W,51.140,0.00,0.00,0.00,220519,N,0.0,0.0*25
$GPGGA,204159.000,4433.9957717,N,12317.6176961,W,0,00,0.0,51.140,M,0.000,M,,0000*48
$GPGLL,4433.9957717,N,12317.6176961,W,204159.000,V,N*55
$GPGSA,A,1,,,,,,,,,,,,,0.0,0.0,0.0*30
$GLGSA,A,1,,,,,,,,,,,,,0.0,0.0,0.0*2C
$GPRMC,204159.000,V,4433.9957717,N,12317.6176961,W,000.00,000.00,220519,,,N*6F
$GPVTG,000.00,T,,M,000.00,N,000.00,K,N*32
$GPZDA,204159.000,22,05,2019,00,00*52
$GPGST,204159.000,,,,,,,*42
$PSTI,030,204159.000,V,4433.9957717,N,12317.6176961,W,51.140,0.00,0.00,0.00,220519,N,0.0,0.0*24
$GPGGA,204200.000,4433.9957717,N,12317.6176961,W,0,00,0.0,51.140,M,0.000,M,,0000*47
$GPGLL,4433.9957717,N,12317.6176961,W,204200.000,V,N*5A
$GPGSA,A,1,,,,,,,,,,,,,0.0,0.0,0.0*30
$GLGSA,A,1,,,,,,,,,,,,,0.0,0.0,0.0*2C
$GPRMC,204200.000,V,4433.9957717,N,12317.6176961,W,000.00,000.00,220519,,,N*60
$GPVTG,000.00,T,,M,000.00,N,000.00,K,N*32
$GPZDA,204200.000,22,05,2019,00,00*5D
$GPGST,204200.000,,,,,,,*4D
$PSTI,030,204200.000,V,4433.9957717,N,12317.6176961,W,51.140,0.00,0.00,0.00,220519,N,0.0,0.0*2B
$GPGGA,204201.000,4433.9957717,N,12317.6176961,W,0,00,0.0,51.140,M,0.000,M,,0000*46
$GPGLL,4433.9957717,N,12317.6176961,W,204201.000,V,N*5B
$GPGSA,A,1,,,,,,,,,,,,,0.0,0.0,0.0*30
$GLGSA,A,1,,,,,,,,,,,,,0.0,0.0,0.0*2C
$GPGSV,3,1,12,19,65,047,,24,57,266,,06,54,133,,17,43,053,20*75
$GPGSV,3,2,12,12,36,298,,02,32,180,,28,16,101,,03,05,045,*7E
$GPGSV,3,3,12,32,03,334,,15,02,229,,25,01,293,,22,00,026,*79
$GLGSV,3,1,10,86,66,035,,76,57,134,,77,54,325,,87,49,215,*6A
$GLGSV,3,2,10,75,14,138,,85,10,035,,69,05,01.000,V,4433.9957717,N,12317.6176961,W,51.140,0.00,0.00,0.00,220519,N,0.0,0.0*2A
$GPGGA,204202.000,4433.9957717,N,12317.6176961,W,0,00,0.0,51.140,M,0.000,M,,0000*45
$GPGLL,4433.9957717,N,12317.6176961,W,204202.000,V,N*58
$GPGSA,A,1,,,,,,,,,,,,,0.0,0.0,0.0*30
$GLGSA,A,1,,,,,,,,,,,,,0.0,0.0,0.0*2C
$GPRMC,204202.000,V,4433.9957717,N,12317.6176961,W,000.00,000.00,220519,,,N*62
$GPVTG,000.00,T,,M,000.00,N,000.00,K,N*32
$GPZDA,204202.000,22,05,2019,00,00*5F
$GPGST,204202.000,,,,,,,*4F
$PSTI,030,204202.000,V,4433.9957717,N,12317.6176961,W,51.140,0.00,0.00,0.00,220519,N,0.0,0.0*29
$GPGGA,204203.000,4433.9957717,N,12317.6176961,W,0,00,0.0,51.140,M,0.000,M,,0000*44
$GPGLL,4433.9957717,N,12317.6176961,W,204203.000,V,N*59
$GPGSA,A,1,,,,,,,,,,,,,0.0,0.0,0.0*30
$GLGSA,A,1,,,,,,,,,,,,,0.0,0.0,0.0*2C
$GPRMC,204203.000,V,4433.9957717,N,12317.6176961,W,000.00,000.00,220519,,,N*63
$GPVTG,000.00,T,,M,000.00,N,000.00,K,N*32
$GPZDA,204203.000,22,05,2019,00,00*5E
$GPGST,204203.000,,,,,,,*4E
$PSTI,030,204203.000,V,4433.9957717,N,12317.6176961,W,51.140,0.00,0.00,0.00,220519,N,0.0,0.0*28
$GPGGA,204204.000,4433.9957717,N,12317.6176961,W,0,00,0.0,51.140,M,0.000,M,,0000*43
$GPGLL,4433.9957717,N,12317.6176961,W,204204.000,V,N*5E
$GPGSA,A,1,,,,,,,,,,,,,0.0,0.0,0.0*30
$GLGSA,A,1,,,,,,,,,,,,,0.0,0.0,0.0*2C
$GPGSV,3,1,12,19,65,047,,24,57,266,,06,54,133,,17,43,053,19*7F
$GPGSV,3,2,12,12,36,298,,02,32,180,15,28,16,101,,03,05,045,*7A
$GPGSV,3,3,12,32,03,334,,15,02,229,,25,01,293,,22,00,026,*79
$GLGSV,3,1,10,86,66,035,,76,57,134,,77,54,325,,87,49,215,*6A
$GLGSV,3,2,10,75,14,138,,85,10,035,,69,0204.000,V,4433.9957717,N,12317.6176961,W,51.140,0.00,0.00,0.00,220519,N,0.0,0.0*2F
$GPGGA,204205.000,4433.9957717,N,12317.6176961,W,0,00,0.0,51.140,M,0.000,M,,0000*42
$GPGLL,4433.9957717,N,12317.6176961,W,204205.000,V,N*5F
$GPGSA,A,1,,,,,,,,,,,,,0.0,0.0,0.0*30
$GLGSA,A,1,,,,,,,,,,,,,0.0,0.0,0.0*2C
$GPRMC,204205.000,V,4433.9957717,N,12317.6176961,W,000.00,000.00,220519,,,N*65
$GPVTG,000.00,T,,M,000.00,N,000.00,K,N*32
$GPZDA,204205.000,22,05,2019,00,00*58
$GPGST,204205.000,,,,,,,*48
$PSTI,030,204205.000,V,4433.9957717,N,12317.6176961,W,51.140,0.00,0.00,0.00,220519,N,0.0,0.0*2E
$GPGGA,204206.000,4433.9957717,N,12317.6176961,W,0,00,0.0,51.140,M,0.000,M,,0000*41
$GPGLL,4433.9957717,N,12317.6176961,W,204206.000,V,N*5C
$GPGSA,A,1,,,,,,,,,,,,,0.0,0.0,0.0*30
$GLGSA,A,1,,,,,,,,,,,,,0.0,0.0,0.0*2C
$GPRMC,204206.000,V,4433.9957717,N,12317.6176961,W,000.00,000.00,220519,,,N*66
$GPVTG,000.00,T,,M,000.00,N,000.00,K,N*32
$GPZDA,204206.000,22,05,2019,00,00*5B
$GPGST,204206.000,,,,,,,*4B
$PSTI,030,204206.000,V,4433.9957717,N,12317.6176961,W,51.140,0.00,0.00,0.00,220519,N,0.0,0.0*2D
$GPGGA,204207.000,4433.9957717,N,12317.6176961,W,0,00,0.0,51.140,M,0.000,M,,0000*40
$GPGLL,4433.9957717,N,12317.6176961,W,204207.000,V,N*5D
$GPGSA,A,1,,,,,,,,,,,,,0.0,0.0,0.0*30
$GLGSA,A,1,,,,,,,,,,,,,0.0,0.0,0.0*2C
$GPGSV,3,1,12,19,65,047,,24,57,266,,06,54,133,,17,43,053,18*7E
$GPGSV,3,2,12,12,36,298,,02,32,180,16,28,16,101,,03,05,045,*79
$GPGSV,3,3,12,32,03,334,,15,02,229,,25,01,293,,22,00,026,*79
$GLGSV,3,1,10,86,66,035,,76,57,134,,77,54,325,,87,49,215,*6A
$GLGSV,3,2,10,75,14,138,,85,10,035,,69,07.000,V,4433.9957717,N,12317.6176961,W,51.140,0.00,0.00,0.00,220519,N,0.0,0.0*2C
$GPGGA,204208.000,4433.9957717,N,12317.6176961,W,0,00,0.0,51.140,M,0.000,M,,0000*4F
$GPGLL,4433.9957717,N,12317.6176961,W,204208.000,V,N*52
$GPGSA,A,1,,,,,,,,,,,,,0.0,0.0,0.0*30
$GLGSA,A,1,,,,,,,,,,,,,0.0,0.0,0.0*2C
$GPRMC,204208.000,V,4433.9957717,N,12317.6176961,W,000.00,000.00,220519,,,N*68
$GPVTG,000.00,T,,M,000.00,N,000.00,K,N*32
$GPZDA,204208.000,22,05,2019,00,00*55
$GPGST,204208.000,,,,,,,*45
$PSTI,030,204208.000,V,4433.9957717,N,12317.6176961,W,51.140,0.00,0.00,0.00,220519,N,0.0,0.0*23
$GPGGA,204209.000,4433.9957717,N,12317.6176961,W,0,00,0.0,51.140,M,0.000,M,,0000*4E
$GPGLL,4433.9957717,N,12317.6176961,W,204209.000,V,N*53
$GPGSA,A,1,,,,,,,,,,,,,0.0,0.0,0.0*30
$GLGSA,A,1,,,,,,,,,,,,,0.0,0.0,0.0*2C
$GPRMC,204209.000,V,4433.9957717,N,12317.6176961,W,000.00,000.00,220519,,,N*69
$GPVTG,000.00,T,,M,000.00,N,000.00,K,N*32
$GPZDA,204209.000,22,05,2019,00,00*54
$GPGST,204209.000,,,,,,,*44
$PSTI,030,204209.000,V,4433.9957717,N,12317.6176961,W,51.140,0.00,0.00,0.00,220519,N,0.0,0.0*22
$GPGGA,204210.000,4433.9957717,N,12317.6176961,W,0,00,0.0,51.140,M,0.000,M,,0000*46
$GPGLL,4433.9957717,N,12317.6176961,W,204210.000,V,N*5B
$GPGSA,A,1,,,,,,,,,,,,,0.0,0.0,0.0*30
$GLGSA,A,1,,,,,,,,,,,,,0.0,0.0,0.0*2C
$GPGSV,3,1,12,19,65,047,,24,57,266,,06,54,133,,17,43,053,18*7E
$GPGSV,3,2,12,12,36,298,,02,32,180,16,28,15,101,,03,05,045,*7A
$GPGSV,3,3,12,32,03,334,,15,02,229,,25,01,293,,22,00,026,*79
$GLGSV,3,1,10,86,66,035,,76,57,134,,77,54,325,,87,49,215,*6A
$GLGSV,3,2,10,75,14,138,,85,10,035,,69,0.000,V,4433.9957717,N,12317.6176961,W,51.140,0.00,0.00,0.00,220519,N,0.0,0.0*2A
$GPGGA,204211.000,4433.9957717,N,12317.6176961,W,0,00,0.0,51.140,M,0.000,M,,0000*47
$GPGLL,4433.9957717,N,12317.6176961,W,204211.000,V,N*5A
$GPGSA,A,1,,,,,,,,,,,,,0.0,0.0,0.0*30
$GLGSA,A,1,,,,,,,,,,,,,0.0,0.0,0.0*2C
$GPRMC,204211.000,V,4433.9957717,N,12317.6176961,W,000.00,000.00,220519,,,N*60
$GPVTG,000.00,T,,M,000.00,N,000.00,K,N*32
$GPZDA,204211.000,22,05,2019,00,00*5D
$GPGST,204211.000,,,,,,,*4D
$PSTI,030,204211.000,V,4433.9957717,N,12317.6176961,W,51.140,0.00,0.00,0.00,220519,N,0.0,0.0*2B
$GPGGA,204212.000,4433.9957717,N,12317.6176961,W,0,00,0.0,51.140,M,0.000,M,,0000*44
$GPGLL,4433.9957717,N,12317.6176961,W,204212.000,V,N*59
$GPGSA,A,1,,,,,,,,,,,,,0.0,0.0,0.0*30
$GLGSA,A,1,,,,,,,,,,,,,0.0,0.0,0.0*2C
$GPRMC,204212.000,V,4433.9957717,N,12317.6176961,W,000.00,000.00,220519,,,N*63
$GPVTG,000.00,T,,M,000.00,N,000.00,K,N*32
$GPZDA,204212.000,22,05,2019,00,00*5E
$GPGST,204212.000,,,,,,,*4E
$PSTI,030,204212.000,V,4433.9957717,N,12317.6176961,W,51.140,0.00,0.00,0.00,220519,N,0.0,0.0*28
$GPGGA,204213.000,4433.9957717,N,12317.6176961,W,0,00,0.0,51.140,M,0.000,M,,0000*45
$GPGLL,4433.9957717,N,12317.6176961,W,204213.000,V,N*58
$GPGSA,A,1,,,,,,,,,,,,,0.0,0.0,0.0*30
$GLGSA,A,1,,,,,,,,,,,,,0.0,0.0,0.0*2C
$GPGSV,3,1,12,19,65,047,,24,57,266,,06,54,133,,17,43,053,18*7E
$GPGSV,3,2,12,12,36,298,,02,32,180,16,28,15,101,,03,05,045,*7A
$GPGSV,3,3,12,32,03,334,,15,02,229,,25,01,293,,22,00,026,*79
$GLGSV,3,1,10,86,66,035,,76,57,134,,77,54,325,,87,49,215,*6A
$GLGSV,3,2,10,75,14,138,,85,10,035,,69,03.000,V,4433.9957717,N,12317.6176961,W,51.140,0.00,0.00,0.00,220519,N,0.0,0.0*29
$GPGGA,204214.000,4433.9957717,N,12317.6176961,W,0,00,0.0,51.140,M,0.000,M,,0000*42
$GPGLL,4433.9957717,N,12317.6176961,W,204214.000,V,N*5F
$GPGSA,A,1,,,,,,,,,,,,,0.0,0.0,0.0*30
$GLGSA,A,1,,,,,,,,,,,,,0.0,0.0,0.0*2C
$GPRMC,204214.000,V,4433.9957717,N,12317.6176961,W,000.00,000.00,220519,,,N*65
$GPVTG,000.00,T,,M,000.00,N,000.00,K,N*32
$GPZDA,204214.000,22,05,2019,00,00*58
$GPGST,204214.000,,,,,,,*48
$PSTI,030,204214.000,V,4433.9957717,N,12317.6176961,W,51.140,0.00,0.00,0.00,220519,N,0.0,0.0*2E
$GPGGA,204215.000,4433.9957717,N,12317.6176961,W,0,00,0.0,51.140,M,0.000,M,,0000*43
$GPGLL,4433.9957717,N,12317.6176961,W,204215.000,V,N*5E
$GPGSA,A,1,,,,,,,,,,,,,0.0,0.0,0.0*30
$GLGSA,A,1,,,,,,,,,,,,,0.0,0.0,0.0*2C
$GPRMC,204215.000,V,4433.9957717,N,12317.6176961,W,000.00,000.00,220519,,,N*64
$GPVTG,000.00,T,,M,000.00,N,000.00,K,N*32
$GPZDA,204215.000,22,05,2019,00,00*59
$GPGST,204215.000,,,,,,,*49
$PSTI,030,204215.000,V,4433.9957717,N,12317.6176961,W,51.140,0.00,0.00,0.00,220519,N,0.0,0.0*2F
$GPGGA,204216.000,4433.9957717,N,12317.6176961,W,0,00,0.0,51.140,M,0.000,M,,0000*40
$GPGLL,4433.9957717,N,12317.6176961,W,204216.000,V,N*5D
$GPGSA,A,1,,,,,,,,,,,,,0.0,0.0,0.0*30
$GLGSA,A,1,,,,,,,,,,,,,0.0,0.0,0.0*2C
$GPGSV,3,1,12,19,65,047,,24,57,266,,06,54,133,,17,43,053,17*71
$GPGSV,3,2,12,12,36,298,,02,32,180,16,28,15,101,,03,05,045,*7A
$GPGSV,3,3,12,32,03,334,,15,02,229,,25,01,293,,22,00,026,*79
$GLGSV,3,1,10,86,66,035,,76,57,134,,77,54,325,,87,49,215,*6A
$GLGSV,3,2,10,75,14,138,,85,10,035,,69,0.000,V,4433.9957717,N,12317.6176961,W,51.140,0.00,0.00,0.00,220519,N,0.0,0.0*2C
$GPGGA,204217.000,4433.9957717,N,12317.6176961,W,0,00,0.0,51.140,M,0.000,M,,0000*41
$GPGLL,4433.9957717,N,12317.6176961,W,204217.000,V,N*5C
$GPGSA,A,1,,,,,,,,,,,,,0.0,0.0,0.0*30
$GLGSA,A,1,,,,,,,,,,,,,0.0,0.0,0.0*2C
$GPRMC,204217.000,V,4433.9957717,N,12317.6176961,W,000.00,000.00,220519,,,N*66
$GPVTG,000.00,T,,M,000.00,N,000.00,K,N*32
$GPZDA,204217.000,22,05,2019,00,00*5B
$GPGST,204217.000,,,,,,,*4B
$PSTI,030,204217.000,V,4433.9957717,N,12317.6176961,W,51.140,0.00,0.00,0.00,220519,N,0.0,0.0*2D
$GPGGA,204218.000,4433.9957717,N,12317.6176961,W,0,00,0.0,51.140,M,0.000,M,,0000*4E
$GPGLL,4433.9957717,N,12317.6176961,W,204218.000,V,N*53
$GPGSA,A,1,,,,,,,,,,,,,0.0,0.0,0.0*30
$GLGSA,A,1,,,,,,,,,,,,,0.0,0.0,0.0*2C
$GPRMC,204218.000,V,4433.9957717,N,12317.6176961,W,000.00,000.00,220519,,,N*69
$GPVTG,000.00,T,,M,000.00,N,000.00,K,N*32
$GPZDA,204218.000,22,05,2019,00,00*54
$GPGST,204218.000,,,,,,,*44
$PSTI,030,204218.000,V,4433.9957717,N,12317.6176961,W,51.140,0.00,0.00,0.00,220519,N,0.0,0.0*22
$GPGGA,204219.000,4433.9957717,N,12317.6176961,W,0,00,0.0,51.140,M,0.000,M,,0000*4F
$GPGLL,4433.9957717,N,12317.6176961,W,204219.000,V,N*52
$GPGSA,A,1,,,,,,,,,,,,,0.0,0.0,0.0*30
$GLGSA,A,1,,,,,,,,,,,,,0.0,0.0,0.0*2C
$GPGSV,3,1,12,19,65,047,,24,57,266,,06,54,133,,17,43,053,15*73
$GPGSV,3,2,12,12,36,298,,02,32,180,14,28,15,101,,03,05,045,*78
$GPGSV,3,3,12,32,03,334,,15,02,229,,25,01,293,,22,00,026,*79
$GLGSV,3,1,10,86,66,035,,76,57,134,,77,54,325,,87,49,215,*6A
$GLGSV,3,2,10,75,14,138,,85,10,035,,69,0V,4433.9957717,N,12317.6176961,W,51.140,0.00,0.00,0.00,220519,N,0.0,0.0*23
$GPGGA,204220.000,4433.9957717,N,12317.6176961,W,0,00,0.0,51.140,M,0.000,M,,0000*45
$GPGLL,4433.9957717,N,12317.6176961,W,204220.000,V,N*58
$GPGSA,A,1,,,,,,,,,,,,,0.0,0.0,0.0*30
$GLGSA,A,1,,,,,,,,,,,,,0.0,0.0,0.0*2C
$GPRMC,204220.000,V,4433.9957717,N,12317.6176961,W,000.00,000.00,220519,,,N*62
$GPVTG,000.00,T,,M,000.00,N,000.00,K,N*32
$GPZDA,204220.000,22,05,2019,00,00*5F
$GPGST,204220.000,,,,,,,*4F
$PSTI,030,204220.000,V,4433.9957717,N,12317.6176961,W,51.140,0.00,0.00,0.00,220519,N,0.0,0.0*29
$GPGGA,204221.000,4433.9957717,N,12317.6176961,W,0,00,0.0,51.140,M,0.000,M,,0000*44
$GPGLL,4433.9957717,N,12317.6176961,W,204221.000,V,N*59
$GPGSA,A,1,,,,,,,,,,,,,0.0,0.0,0.0*30
$GLGSA,A,1,,,,,,,,,,,,,0.0,0.0,0.0*2C
$GPRMC,204221.000,V,4433.9957717,N,12317.6176961,W,000.00,000.00,220519,,,N*63
$GPVTG,000.00,T,,M,000.00,N,000.00,K,N*32
$GPZDA,204221.000,22,05,2019,00,00*5E
$GPGST,204221.000,,,,,,,*4E
$PSTI,030,204221.000,V,4433.9957717,N,12317.6176961,W,51.140,0.00,0.00,0.00,220519,N,0.0,0.0*28
$GPGGA,204222.000,4433.9957717,N,12317.6176961,W,0,00,0.0,51.140,M,0.000,M,,0000*47
$GPGLL,4433.9957717,N,12317.6176961,W,204222.000,V,N*5A
$GPGSA,A,1,,,,,,,,,,,,,0.0,0.0,0.0*30
$GLGSA,A,1,,,,,,,,,,,,,0.0,0.0,0.0*2C
$GPGSV,3,1,12,19,65,047,,24,57,266,,06,54,133,,17,43,053,11*77
$GPGSV,3,2,12,12,36,298,,02,32,180,11,28,15,101,,03,05,045,*7D
$GPGSV,3,3,12,32,03,334,,15,02,229,,25,01,293,,22,00,026,*79
$GLGSV,3,1,10,86,66,035,,76,57,134,,77,54,325,,87,49,215,*6A
$GLGSV,3,2,10,75,14,138,,85,10,035,,69,004222.000,V,4433.9957717,N,12317.6176961,W,51.140,0.00,0.00,0.00,220519,N,0.0,0.0*2B
$GPGGA,204223.000,4433.9957717,N,12317.6176961,W,0,00,0.0,51.140,M,0.000,M,,0000*46
$GPGLL,4433.9957717,N,12317.6176961,W,204223.000,V,N*5B
$GPGSA,A,1,,,,,,,,,,,,,0.0,0.0,0.0*30
$GLGSA,A,1,,,,,,,,,,,,,0.0,0.0,0.0*2C
$GPRMC,204223.000,V,4433.9957717,N,12317.6176961,W,000.00,000.00,220519,,,N*61
$GPVTG,000.00,T,,M,000.00,N,000.00,K,N*32
$GPZDA,204223.000,22,05,2019,00,00*5C
$GPGST,204223.000,,,,,,,*4C
$PSTI,030,204223.000,V,4433.9957717,N,12317.6176961,W,51.140,0.00,0.00,0.00,220519,N,0.0,0.0*2A
$GPGGA,204224.000,4433.9957717,N,12317.6176961,W,0,00,0.0,51.140,M,0.000,M,,0000*41
$GPGLL,4433.9957717,N,12317.6176961,W,204224.000,V,N*5C
$GPGSA,A,1,,,,,,,,,,,,,0.0,0.0,0.0*30
$GLGSA,A,1,,,,,,,,,,,,,0.0,0.0,0.0*2C
$GPRMC,204224.000,V,4433.9957717,N,12317.6176961,W,000.00,000.00,220519,,,N*66
$GPVTG,000.00,T,,M,000.00,N,000.00,K,N*32
$GPZDA,204224.000,22,05,2019,00,00*5B
$GPGST,204224.000,,,,,,,*4B
$PSTI,030,204224.000,V,4433.9957717,N,12317.6176961,W,51.140,0.00,0.00,0.00,220519,N,0.0,0.0*2D
$GPGGA,204225.000,4433.9957717,N,12317.6176961,W,0,00,0.0,51.140,M,0.000,M,,0000*40
$GPGLL,4433.9957717,N,12317.6176961,W,204225.000,V,N*5D
$GPGSA,A,1,,,,,,,,,,,,,0.0,0.0,0.0*30
$GLGSA,A,1,,,,,,,,,,,,,0.0,0.0,0.0*2C
$GPGSV,3,1,12,19,65,047,,24,57,266,,06,54,133,,17,43,053,09*7E
$GPGSV,3,2,12,12,36,298,,02,32,180,10,28,15,101,,03,05,045,*7C
$GPGSV,3,3,12,32,03,334,,15,02,229,,25,01,293,,22,00,026,*79
$GLGSV,3,1,10,86,66,035,,76,57,134,,77,54,325,,87,49,215,*6A
$GLGSV,3,2,10,75,14,138,,85,10,035,,69,0.000,V,4433.9957717,N,12317.6176961,W,51.140,0.00,0.00,0.00,220519,N,0.0,0.0*2C
$GPGGA,204226.000,4433.9957717,N,12317.6176961,W,0,00,0.0,51.140,M,0.000,M,,0000*43
$GPGLL,4433.9957717,N,12317.6176961,W,204226.000,V,N*5E
$GPGSA,A,1,,,,,,,,,,,,,0.0,0.0,0.0*30
$GLGSA,A,1,,,,,,,,,,,,,0.0,0.0,0.0*2C
$GPRMC,204226.000,V,4433.9957717,N,12317.6176961,W,000.00,000.00,220519,,,N*64
$GPVTG,000.00,T,,M,000.00,N,000.00,K,N*32
$GPZDA,204226.000,22,05,2019,00,00*59
$GPGST,204226.000,,,,,,,*49
$PSTI,030,204226.000,V,4433.9957717,N,12317.6176961,W,51.140,0.00,0.00,0.00,220519,N,0.0,0.0*2F
$GPGGA,204227.000,4433.9957717,N,12317.6176961,W,0,00,0.0,51.140,M,0.000,M,,0000*42
$GPGLL,4433.9957717,N,12317.6176961,W,204227.000,V,N*5F
$GPGSA,A,1,,,,,,,,,,,,,0.0,0.0,0.0*30
$GLGSA,A,1,,,,,,,,,,,,,0.0,0.0,0.0*2C
$GPRMC,204227.000,V,4433.9957717,N,12317.6176961,W,000.00,000.00,220519,,,N*65
$GPVTG,000.00,T,,M,000.00,N,000.00,K,N*32
$GPZDA,204227.000,22,05,2019,00,00*58
$GPGST,204227.000,,,,,,,*48
$PSTI,030,204227.000,V,4433.9957717,N,12317.6176961,W,51.140,0.00,0.00,0.00,220519,N,0.0,0.0*2E
$GPGGA,204228.000,4433.9957717,N,12317.6176961,W,0,00,0.0,51.140,M,0.000,M,,0000*4D
$GPGLL,4433.9957717,N,12317.6176961,W,204228.000,V,N*50
$GPGSA,A,1,,,,,,,,,,,,,0.0,0.0,0.0*30
$GLGSA,A,1,,,,,,,,,,,,,0.0,0.0,0.0*2C
$GPGSV,3,1,12,19,65,047,,24,57,266,,06,54,133,,17,43,053,11*77
$GPGSV,3,2,12,12,36,298,,02,32,180,11,28,15,101,,03,05,045,*7D
$GPGSV,3,3,12,32,03,334,,15,02,229,,25,01,293,,22,00,026,*79
$GLGSV,3,1,10,86,66,035,,76,57,134,,77,54,325,,87,49,215,*6A
$GLGSV,3,2,10,75,14,138,,85,10,035,,69,0204228.000,V,4433.9957717,N,12317.6176961,W,51.140,0.00,0.00,0.00,220519,N,0.0,0.0*21
$GPGGA,204229.000,4433.9957717,N,12317.6176961,W,0,00,0.0,51.140,M,0.000,M,,0000*4C
$GPGLL,4433.9957717,N,12317.6176961,W,204229.000,V,N*51
$GPGSA,A,1,,,,,,,,,,,,,0.0,0.0,0.0*30
$GLGSA,A,1,,,,,,,,,,,,,0.0,0.0,0.0*2C
$GPRMC,204229.000,V,4433.9957717,N,12317.6176961,W,000.00,000.00,220519,,,N*6B
$GPVTG,000.00,T,,M,000.00,N,000.00,K,N*32
$GPZDA,204229.000,22,05,2019,00,00*56
$GPGST,204229.000,,,,,,,*46
$PSTI,030,204229.000,V,4433.9957717,N,12317.6176961,W,51.140,0.00,0.00,0.00,220519,N,0.0,0.0*20
$GPGGA,204230.000,4433.9957717,N,12317.6176961,W,0,00,0.0,51.140,M,0.000,M,,0000*44
$GPGLL,4433.9957717,N,12317.6176961,W,204230.000,V,N*59
$GPGSA,A,1,,,,,,,,,,,,,0.0,0.0,0.0*30
$GLGSA,A,1,,,,,,,,,,,,,0.0,0.0,0.0*2C
$GPRMC,204230.000,V,4433.9957717,N,12317.6176961,W,000.00,000.00,220519,,,N*63
$GPVTG,000.00,T,,M,000.00,N,000.00,K,N*32
$GPZDA,204230.000,22,05,2019,00,00*5E
$GPGST,204230.000,,,,,,,*4E
$PSTI,030,204230.000,V,4433.9957717,N,12317.6176961,W,51.140,0.00,0.00,0.00,220519,N,0.0,0.0*28
$GPGGA,204231.000,4433.9957717,N,12317.6176961,W,0,00,0.0,51.140,M,0.000,M,,0000*45
$GPGLL,4433.9957717,N,12317.6176961,W,204231.000,V,N*58
$GPGSA,A,1,,,,,,,,,,,,,0.0,0.0,0.0*30
$GLGSA,A,1,,,,,,,,,,,,,0.0,0.0,0.0*2C
$GPGSV,3,1,12,19,65,047,,24,57,266,,06,54,133,,17,43,053,09*7E
$GPGSV,3,2,12,12,36,298,,02,32,180,12,28,15,101,,03,05,045,*7E
$GPGSV,3,3,12,32,03,334,,15,02,229,,25,01,293,,22,00,026,*79
$GLGSV,3,1,10,86,66,035,,76,57,134,,77,54,325,,87,49,215,*6A
$GLGSV,3,2,10,75,14,138,,85,10,035,,69,0.000,V,4433.9957717,N,12317.6176961,W,51.140,0.00,0.00,0.00,220519,N,0.0,0.0*29
$GPGGA,204232.000,4433.9957717,N,12317.6176961,W,0,00,0.0,51.140,M,0.000,M,,0000*46
$GPGLL,4433.9957717,N,12317.6176961,W,204232.000,V,N*5B
$GPGSA,A,1,,,,,,,,,,,,,0.0,0.0,0.0*30
$GLGSA,A,1,,,,,,,,,,,,,0.0,0.0,0.0*2C
$GPRMC,204232.000,V,4433.9957717,N,12317.6176961,W,000.00,000.00,220519,,,N*61
$GPVTG,000.00,T,,M,000.00,N,000.00,K,N*32
$GPZDA,204232.000,22,05,2019,00,00*5C
$GPGST,204232.000,,,,,,,*4C
$PSTI,030,204232.000,V,4433.9957717,N,12317.6176961,W,51.140,0.00,0.00,0.00,220519,N,0.0,0.0*2A
$GPGGA,204233.000,4433.9957717,N,12317.6176961,W,0,00,0.0,51.140,M,0.000,M,,0000*47
$GPGLL,4433.9957717,N,12317.6176961,W,204233.000,V,N*5A
$GPGSA,A,1,,,,,,,,,,,,,0.0,0.0,0.0*30
$GLGSA,A,1,,,,,,,,,,,,,0.0,0.0,0.0*2C
$GPRMC,204233.000,V,4433.9957717,N,12317.6176961,W,000.00,000.00,220519,,,N*60
$GPVTG,000.00,T,,M,000.00,N,000.00,K,N*32
$GPZDA,204233.000,22,05,2019,00,00*5D
$GPGST,204233.000,,,,,,,*4D
$PSTI,030,204233.000,V,4433.9957717,N,12317.6176961,W,51.140,0.00,0.00,0.00,220519,N,0.0,0.0*2B
$GPGGA,204234.000,4433.9957717,N,12317.6176961,W,0,00,0.0,51.140,M,0.000,M,,0000*40
$GPGLL,4433.9957717,N,12317.6176961,W,204234.000,V,N*5D
$GPGSA,A,1,,,,,,,,,,,,,0.0,0.0,0.0*30
$GLGSA,A,1,,,,,,,,,,,,,0.0,0.0,0.0*2C
$GPGSV,3,1,12,19,65,047,,24,57,266,,06,54,133,,17,43,053,10*76
$GPGSV,3,2,12,12,36,298,,02,32,180,10,28,15,101,,03,05,045,*7C
$GPGSV,3,3,12,32,03,334,,15,02,229,,25,01,293,,22,00,026,*79
$GLGSV,3,1,10,86,66,035,,76,57,134,,77,54,325,,87,49,215,*6A
$GLGSV,3,2,10,75,14,138,,85,10,035,,69,00,204234.000,V,4433.9957717,N,12317.6176961,W,51.140,0.00,0.00,0.00,220519,N,0.0,0.0*2C
$GPGGA,204235.000,4433.9957717,N,12317.6176961,W,0,00,0.0,51.140,M,0.000,M,,0000*41
$GPGLL,4433.9957717,N,12317.6176961,W,204235.000,V,N*5C
$GPGSA,A,1,,,,,,,,,,,,,0.0,0.0,0.0*30
$GLGSA,A,1,,,,,,,,,,,,,0.0,0.0,0.0*2C
$GPRMC,204235.000,V,4433.9957717,N,12317.6176961,W,000.00,000.00,220519,,,N*66
$GPVTG,000.00,T,,M,000.00,N,000.00,K,N*32
$GPZDA,204235.000,22,05,2019,00,00*5B
$GPGST,204235.000,,,,,,,*4B
$PSTI,030,204235.000,V,4433.9957717,N,12317.6176961,W,51.140,0.00,0.00,0.00,220519,N,0.0,0.0*2D
$GPGGA,204236.000,4433.9957717,N,12317.6176961,W,0,00,0.0,51.140,M,0.000,M,,0000*42
$GPGLL,4433.9957717,N,12317.6176961,W,204236.000,V,N*5F
$GPGSA,A,1,,,,,,,,,,,,,0.0,0.0,0.0*30
$GLGSA,A,1,,,,,,,,,,,,,0.0,0.0,0.0*2C
$GPRMC,204236.000,V,4433.9957717,N,12317.6176961,W,000.00,000.00,220519,,,N*65
$GPVTG,000.00,T,,M,000.00,N,000.00,K,N*32
$GPZDA,204236.000,22,05,2019,00,00*58
$GPGST,204236.000,,,,,,,*48
$PSTI,030,204236.000,V,4433.9957717,N,12317.6176961,W,51.140,0.00,0.00,0.00,220519,N,0.0,0.0*2E
$GPGGA,204237.000,4433.9957717,N,12317.6176961,W,0,00,0.0,51.140,M,0.000,M,,0000*43
$GPGLL,4433.9957717,N,12317.6176961,W,204237.000,V,N*5E
$GPGSA,A,1,,,,,,,,,,,,,0.0,0.0,0.0*30
$GLGSA,A,1,,,,,,,,,,,,,0.0,0.0,0.0*2C
$GPGSV,3,1,12,19,65,047,,24,57,266,,06,54,133,18,17,43,053,08*76
$GPGSV,3,2,12,12,36,298,,02,32,180,14,28,15,101,,03,05,045,*78
$GPGSV,3,3,12,32,03,334,,15,02,229,,25,01,293,,22,00,026,*79
$GLGSV,3,1,10,86,66,035,,76,57,134,,77,54,325,,87,49,216,*69
$GLGSV,3,2,10,75,14,138,,85,09,036,,69,030,204237.000,V,4433.9957717,N,12317.6176961,W,51.140,0.00,0.00,0.00,220519,N,0.0,0.0*2F
$GPGGA,204238.000,4433.9957717,N,12317.6176961,W,0,00,0.0,51.140,M,0.000,M,,0000*4C
$GPGLL,4433.9957717,N,12317.6176961,W,204238.000,V,N*51
$GPGSA,A,1,,,,,,,,,,,,,0.0,0.0,0.0*30
$GLGSA,A,1,,,,,,,,,,,,,0.0,0.0,0.0*2C
$GPRMC,204238.000,V,4433.9957717,N,12317.6176961,W,000.00,000.00,220519,,,N*6B
$GPVTG,000.00,T,,M,000.00,N,000.00,K,N*32
$GPZDA,204238.000,22,05,2019,00,00*56
$GPGST,204238.000,,,,,,,*46
$PSTI,030,204238.000,V,4433.9957717,N,12317.6176961,W,51.140,0.00,0.00,0.00,220519,N,0.0,0.0*20
$GPGGA,204239.000,4433.9957717,N,12317.6176961,W,0,00,0.0,51.140,M,0.000,M,,0000*4D
$GPGLL,4433.9957717,N,12317.6176961,W,204239.000,V,N*50
$GPGSA,A,1,,,,,,,,,,,,,0.0,0.0,0.0*30
$GLGSA,A,1,,,,,,,,,,,,,0.0,0.0,0.0*2C
$GPRMC,204239.000,V,4433.9957717,N,12317.6176961,W,000.00,000.00,220519,,,N*6A
$GPVTG,000.00,T,,M,000.00,N,000.00,K,N*32
$GPZDA,204239.000,22,05,2019,00,00*57
$GPGST,204239.000,,,,,,,*47
$PSTI,030,204239.000,V,4433.9957717,N,12317.6176961,W,51.140,0.00,0.00,0.00,220519,N,0.0,0.0*21
$GPGGA,204240.000,4433.9957717,N,12317.6176961,W,0,00,0.0,51.140,M,0.000,M,,0000*43
$GPGLL,4433.9957717,N,12317.6176961,W,204240.000,V,N*5E
$GPGSA,A,1,,,,,,,,,,,,,0.0,0.0,0.0*30
$GLGSA,A,1,,,,,,,,,,,,,0.0,0.0,0.0*2C
$GPGSV,3,1,12,19,65,047,,24,57,266,,06,54,133,17,17,43,053,06*77
$GPGSV,3,2,12,12,36,298,,02,33,179,,28,15,101,,03,05,045,*7A
$GPGSV,3,3,12,32,03,334,,15,02,229,,25,01,293,,22,00,026,*79
$GLGSV,3,1,10,86,66,035,,76,57,134,,77,54,325,,87,49,216,*69
$GLGSV,3,2,10,75,14,138,,85,09,036,,69,0204240.000,V,4433.9957717,N,12317.6176961,W,51.140,0.00,0.00,0.00,220519,N,0.0,0.0*2F
$GPGGA,204241.000,4433.9957717,N,12317.6176961,W,0,00,0.0,51.140,M,0.000,M,,0000*42
$GPGLL,4433.9957717,N,12317.6176961,W,204241.000,V,N*5F
$GPGSA,A,1,,,,,,,,,,,,,0.0,0.0,0.0*30
$GLGSA,A,1,,,,,,,,,,,,,0.0,0.0,0.0*2C
$GPRMC,204241.000,V,4433.9957717,N,12317.6176961,W,000.00,000.00,220519,,,N*65
$GPVTG,000.00,T,,M,000.00,N,000.00,K,N*32
$GPZDA,204241.000,22,05,2019,00,00*58
$GPGST,204241.000,,,,,,,*48
$PSTI,030,204241.000,V,4433.9957717,N,12317.6176961,W,51.140,0.00,0.00,0.00,220519,N,0.0,0.0*2E
$GPGGA,204242.000,4433.9957717,N,12317.6176961,W,0,00,0.0,51.140,M,0.000,M,,0000*41
$GPGLL,4433.9957717,N,12317.6176961,W,204242.000,V,N*5C
$GPGSA,A,1,,,,,,,,,,,,,0.0,0.0,0.0*30
$GLGSA,A,1,,,,,,,,,,,,,0.0,0.0,0.0*2C
$GPRMC,204242.000,V,4433.9957717,N,12317.6176961,W,000.00,000.00,220519,,,N*66
$GPVTG,000.00,T,,M,000.00,N,000.00,K,N*32
$GPZDA,204242.000,22,05,2019,00,00*5B
$GPGST,204242.000,,,,,,,*4B
$PSTI,030,204242.000,V,4433.9957717,N,12317.6176961,W,51.140,0.00,0.00,0.00,220519,N,0.0,0.0*2D
$GPGGA,204243.000,4433.9957717,N,12317.6176961,W,0,00,0.0,51.140,M,0.000,M,,0000*40
$GPGLL,4433.9957717,N,12317.6176961,W,204243.000,V,N*5D
$GPGSA,A,1,,,,,,,,,,,,,0.0,0.0,0.0*30
$GLGSA,A,1,,,,,,,,,,,,,0.0,0.0,0.0*2C
$GPGSV,3,1,12,19,65,047,,24,57,266,,06,54,133,16,17,43,053,10*71
$GPGSV,3,2,12,12,36,298,,02,33,179,,28,15,101,,03,05,044,*7B
$GPGSV,3,3,12,32,03,334,,15,02,229,,25,01,293,,22,00,026,*79
$GLGSV,3,1,10,86,66,035,,76,57,134,,77,54,325,,87,49,216,*69
$GLGSV,3,2,10,75,14,138,,85,09,036,,69,0.000,V,4433.9957717,N,12317.6176961,W,51.140,0.00,0.00,0.00,220519,N,0.0,0.0*2C
$GPGGA,204244.000,4433.9957717,N,12317.6176961,W,0,00,0.0,51.140,M,0.000,M,,0000*47
$GPGLL,4433.9957717,N,12317.6176961,W,204244.000,V,N*5A
$GPGSA,A,1,,,,,,,,,,,,,0.0,0.0,0.0*30
$GLGSA,A,1,,,,,,,,,,,,,0.0,0.0,0.0*2C
$GPRMC,204244.000,V,4433.9957717,N,12317.6176961,W,000.00,000.00,220519,,,N*60
$GPVTG,000.00,T,,M,000.00,N,000.00,K,N*32
$GPZDA,204244.000,22,05,2019,00,00*5D
$GPGST,204244.000,,,,,,,*4D
$PSTI,030,204244.000,V,4433.9957717,N,12317.6176961,W,51.140,0.00,0.00,0.00,220519,N,0.0,0.0*2B
$GPGGA,204245.000,4433.9957717,N,12317.6176961,W,0,00,0.0,51.140,M,0.000,M,,0000*46
$GPGLL,4433.9957717,N,12317.6176961,W,204245.000,V,N*5B
$GPGSA,A,1,,,,,,,,,,,,,0.0,0.0,0.0*30
$GLGSA,A,1,,,,,,,,,,,,,0.0,0.0,0.0*2C
$GPRMC,204245.000,V,4433.9957717,N,12317.6176961,W,000.00,000.00,220519,,,N*61
$GPVTG,000.00,T,,M,000.00,N,000.00,K,N*32
$GPZDA,204245.000,22,05,2019,00,00*5C
$GPGST,204245.000,,,,,,,*4C
$PSTI,030,204245.000,V,4433.9957717,N,12317.6176961,W,51.140,0.00,0.00,0.00,220519,N,0.0,0.0*2A
$GPGGA,204246.000,4433.9957717,N,12317.6176961,W,0,00,0.0,51.140,M,0.000,M,,0000*45
$GPGLL,4433.9957717,N,12317.6176961,W,204246.000,V,N*58
$GPGSA,A,1,,,,,,,,,,,,,0.0,0.0,0.0*30
$GLGSA,A,1,,,,,,,,,,,,,0.0,0.0,0.0*2C
$GPGSV,3,1,12,19,65,047,,24,57,266,,06,54,132,17,17,43,053,09*79
$GPGSV,3,2,12,12,36,298,,02,33,179,,28,15,101,,03,05,044,*7B
$GPGSV,3,3,12,32,03,334,,15,02,229,,25,01,293,,22,00,026,*79
$GLGSV,3,1,10,86,66,035,,76,57,134,,77,54,325,,87,49,216,*69
$GLGSV,3,2,10,75,14,138,,85,09,036,,69,004246.000,V,4433.9957717,N,12317.6176961,W,51.140,0.00,0.00,0.00,220519,N,0.0,0.0*29
$GPGGA,204247.000,4433.9957717,N,12317.6176961,W,0,00,0.0,51.140,M,0.000,M,,0000*44
$GPGLL,4433.9957717,N,12317.6176961,W,204247.000,V,N*59
$GPGSA,A,1,,,,,,,,,,,,,0.0,0.0,0.0*30
$GLGSA,A,1,,,,,,,,,,,,,0.0,0.0,0.0*2C
$GPRMC,204247.000,V,4433.9957717,N,12317.6176961,W,000.00,000.00,220519,,,N*63
$GPVTG,000.00,T,,M,000.00,N,000.00,K,N*32
$GPZDA,204247.000,22,05,2019,00,00*5E
$GPGST,204247.000,,,,,,,*4E
$PSTI,030,204247.000,V,4433.9957717,N,12317.6176961,W,51.140,0.00,0.00,0.00,220519,N,0.0,0.0*28
$GPGGA,204248.000,4433.9957717,N,12317.6176961,W,0,00,0.0,51.140,M,0.000,M,,0000*4B
$GPGLL,4433.9957717,N,12317.6176961,W,204248.000,V,N*56
$GPGSA,A,1,,,,,,,,,,,,,0.0,0.0,0.0*30
$GLGSA,A,1,,,,,,,,,,,,,0.0,0.0,0.0*2C
$GPRMC,204248.000,V,4433.9957717,N,12317.6176961,W,000.00,000.00,220519,,,N*6C
$GPVTG,000.00,T,,M,000.00,N,000.00,K,N*32
$GPZDA,204248.000,22,05,2019,00,00*51
$GPGST,204248.000,,,,,,,*41
$PSTI,030,204248.000,V,4433.9957717,N,12317.6176961,W,51.140,0.00,0.00,0.00,220519,N,0.0,0.0*27
$GPGGA,204249.000,4433.9957717,N,12317.6176961,W,0,00,0.0,51.140,M,0.000,M,,0000*4A
$GPGLL,4433.9957717,N,12317.6176961,W,204249.000,V,N*57
$GPGSA,A,1,,,,,,,,,,,,,0.0,0.0,0.0*30
$GLGSA,A,1,,,,,,,,,,,,,0.0,0.0,0.0*2C
$GPGSV,3,1,12,19,65,047,,24,57,266,,06,54,132,16,17,43,053,*71
$GPGSV,3,2,12,12,36,298,,02,33,179,,28,15,101,,03,05,044,*7B
$GPGSV,3,3,12,32,03,334,,15,02,229,,25,01,293,,22,00,026,*79
$GLGSV,3,1,10,86,66,035,,76,57,134,,77,54,325,,87,49,216,*69
$GLGSV,3,2,10,75,14,138,,85,09,036,,69,05,00,V,4433.9957717,N,12317.6176961,W,51.140,0.00,0.00,0.00,220519,N,0.0,0.0*26
$GPGGA,204250.000,4433.9957717,N,12317.6176961,W,0,00,0.0,51.140,M,0.000,M,,0000*42
$GPGLL,4433.9957717,N,12317.6176961,W,204250.000,V,N*5F
$GPGSA,A,1,,,,,,,,,,,,,0.0,0.0,0.0*30
$GLGSA,A,1,,,,,,,,,,,,,0.0,0.0,0.0*2C
$GPRMC,204250.000,V,4433.9957717,N,12317.6176961,W,000.00,000.00,220519,,,N*65
$GPVTG,000.00,T,,M,000.00,N,000.00,K,N*32
$GPZDA,204250.000,22,05,2019,00,00*58
$GPGST,204250.000,,,,,,,*48
$PSTI,030,204250.000,V,4433.9957717,N,12317.6176961,W,51.140,0.00,0.00,0.00,220519,N,0.0,0.0*2E
$GPGGA,204251.000,4433.9957717,N,12317.6176961,W,0,00,0.0,51.140,M,0.000,M,,0000*43
$GPGLL,4433.9957717,N,12317.6176961,W,204251.000,V,N*5E
$GPGSA,A,1,,,,,,,,,,,,,0.0,0.0,0.0*30
$GLGSA,A,1,,,,,,,,,,,,,0.0,0.0,0.0*2C
$GPRMC,204251.000,V,4433.9957717,N,12317.6176961,W,000.00,000.00,220519,,,N*64
$GPVTG,000.00,T,,M,000.00,N,000.00,K,N*32
$GPZDA,204251.000,22,05,2019,00,00*59
$GPGST,204251.000,,,,,,,*49
$PSTI,030,204251.000,V,4433.9957717,N,12317.6176961,W,51.140,0.00,0.00,0.00,220519,N,0.0,0.0*2F
$GPGGA,204252.000,4433.9957717,N,12317.6176961,W,0,00,0.0,51.140,M,0.000,M,,0000*40
$GPGLL,4433.9957717,N,12317.6176961,W,204252.000,V,N*5D
$GPGSA,A,1,,,,,,,,,,,,,0.0,0.0,0.0*30
$GLGSA,A,1,,,,,,,,,,,,,0.0,0.0,0.0*2C
$GPGSV,3,1,12,19,65,047,,24,57,266,,06,54,132,15,17,43,053,*72
$GPGSV,3,2,12,12,36,298,,02,33,179,,28,15,101,,03,05,044,*7B
$GPGSV,3,3,12,32,03,334,,15,02,229,,25,01,293,,22,00,026,*79
$GLGSV,3,1,10,86,66,035,,76,57,134,,77,54,325,,87,49,216,*69
$GLGSV,3,2,10,75,14,138,,85,09,036,,69,05,0,V,4433.9957717,N,12317.6176961,W,51.140,0.00,0.00,0.00,220519,N,0.0,0.0*2C
$GPGGA,204253.000,4433.9957717,N,12317.6176961,W,0,00,0.0,51.140,M,0.000,M,,0000*41
$GPGLL,4433.9957717,N,12317.6176961,W,204253.000,V,N*5C
$GPGSA,A,1,,,,,,,,,,,,,0.0,0.0,0.0*30
$GLGSA,A,1,,,,,,,,,,,,,0.0,0.0,0.0*2C
$GPRMC,204253.000,V,4433.9957717,N,12317.6176961,W,000.00,000.00,220519,,,N*66
$GPVTG,000.00,T,,M,000.00,N,000.00,K,N*32
$GPZDA,204253.000,22,05,2019,00,00*5B
$GPGST,204253.000,,,,,,,*4B
$PSTI,030,204253.000,V,4433.9957717,N,12317.6176961,W,51.140,0.00,0.00,0.00,220519,N,0.0,0.0*2D
$GPGGA,204254.000,4433.9957717,N,12317.6176961,W,0,00,0.0,51.140,M,0.000,M,,0000*46
$GPGLL,4433.9957717,N,12317.6176961,W,204254.000,V,N*5B
$GPGSA,A,1,,,,,,,,,,,,,0.0,0.0,0.0*30
$GLGSA,A,1,,,,,,,,,,,,,0.0,0.0,0.0*2C
$GPRMC,204254.000,V,4433.9957717,N,12317.6176961,W,000.00,000.00,220519,,,N*61
$GPVTG,000.00,T,,M,000.00,N,000.00,K,N*32
$GPZDA,204254.000,22,05,2019,00,00*5C
$GPGST,204254.000,,,,,,,*4C
$PSTI,030,204254.000,V,4433.9957717,N,12317.6176961,W,51.140,0.00,0.00,0.00,220519,N,0.0,0.0*2A
$GPGGA,204255.000,4433.9957717,N,12317.6176961,W,0,00,0.0,51.140,M,0.000,M,,0000*47
$GPGLL,4433.9957717,N,12317.6176961,W,204255.000,V,N*5A
$GPGSA,A,1,,,,,,,,,,,,,0.0,0.0,0.0*30
$GLGSA,A,1,,,,,,,,,,,,,0.0,0.0,0.0*2C
$GPGSV,3,1,12,19,65,047,,24,57,266,,06,54,132,16,17,42,053,*70
$GPGSV,3,2,12,12,36,298,,02,33,179,,28,15,101,,03,05,044,*7B
$GPGSV,3,3,12,32,03,334,,15,02,229,,25,01,293,,22,00,026,*79
$GLGSV,3,1,10,86,66,035,,76,57,134,,77,54,325,,87,49,216,*69
$GLGSV,3,2,10,75,14,138,,85,09,036,,69,05,$GPGGA,204256.000,4433.9957717,N,12317.6176961,W,0,00,0.0,51.140,M,0.000,M,,0000*44
$GPGLL,4433.9957717,N,12317.6176961,W,204256.000,V,N*59
$GPGSA,A,1,,,,,,,,,,,,,0.0,0.0,0.0*30
$GLGSA,A,1,,,,,,,,,,,,,0.0,0.0,0.0*2C
$GPRMC,204256.000,V,4433.9957717,N,12317.6176961,W,000.00,000.00,220519,,,N*63
$GPVTG,000.00,T,,M,000.00,N,000.00,K,N*32
$GPZDA,204256.000,22,05,2019,00,00*5E
$GPGST,204256.000,,,,,,,*4E
$PSTI,030,204256.000,V,4433.9957717,N,12317.6176961,W,51.140,0.00,0.00,0.00,220519,N,0.0,0.0*28
$GPGGA,204257.000,4433.9957717,N,12317.6176961,W,0,00,0.0,51.140,M,0.000,M,,0000*45
$GPGLL,4433.9957717,N,12317.6176961,W,204257.000,V,N*58
$GPGSA,A,1,,,,,,,,,,,,,0.0,0.0,0.0*30
$GLGSA,A,1,,,,,,,,,,,,,0.0,0.0,0.0*2C
$GPRMC,204257.000,V,4433.9957717,N,12317.6176961,W,000.00,000.00,220519,,,N*62
$GPVTG,000.00,T,,M,000.00,N,000.00,K,N*32
$GPZDA,204257.000,22,05,2019,00,00*5F
$GPGST,204257.000,,,,,,,*4F
$PSTI,030,204257.000,V,4433.9957717,N,12317.6176961,W,51.140,0.00,0.00,0.00,220519,N,0.0,0.0*29
$GPGGA,204258.000,4433.9957717,N,12317.6176961,W,0,00,0.0,51.140,M,0.000,M,,0000*4A
$GPGLL,4433.9957717,N,12317.6176961,W,204258.000,V,N*57
$GPGSA,A,1,,,,,,,,,,,,,0.0,0.0,0.0*30
$GLGSA,A,1,,,,,,,,,,,,,0.0,0.0,0.0*2C
$GPGSV,3,1,12,19,64,047,,24,57,266,,06,54,132,14,17,42,053,*73
$GPGSV,3,2,12,12,36,298,,02,33,179,,28,15,101,,03,05,044,*7B
$GPGSV,3,3,12,32,03,334,,15,02,229,,25,01,293,,22,00,026,*79
$GLGSV,3,1,10,86,66,035,,76,57,134,,77,54,325,,87,49,216,*69
$GLGSV,3,2,10,75,14,138,,85,09,036,,69,05,9,N,0.0,0.0*26
$GPGGA,204259.000,4433.9957717,N,12317.6176961,W,0,00,0.0,51.140,M,0.000,M,,0000*4B
$GPGLL,4433.9957717,N,12317.6176961,W,204259.000,V,N*56
$GPGSA,A,1,,,,,,,,,,,,,0.0,0.0,0.0*30
$GLGSA,A,1,,,,,,,,,,,,,0.0,0.0,0.0*2C
$GPRMC,204259.000,V,4433.9957717,N,12317.6176961,W,000.00,000.00,220519,,,N*6C
$GPVTG,000.00,T,,M,000.00,N,000.00,K,N*32
$GPZDA,204259.000,22,05,2019,00,00*51
$GPGST,204259.000,,,,,,,*41
$PSTI,030,204259.000,V,4433.9957717,N,12317.6176961,W,51.140,0.00,0.00,0.00,220519,N,0.0,0.0*27
$GPGGA,204300.000,4433.9957717,N,12317.6176961,W,0,00,0.0,51.140,M,0.000,M,,0000*46
$GPGLL,4433.9957717,N,12317.6176961,W,204300.000,V,N*5B
$GPGSA,A,1,,,,,,,,,,,,,0.0,0.0,0.0*30
$GLGSA,A,1,,,,,,,,,,,,,0.0,0.0,0.0*2C
$GPRMC,204300.000,V,4433.9957717,N,12317.6176961,W,000.00,000.00,220519,,,N*61
$GPVTG,000.00,T,,M,000.00,N,000.00,K,N*32
$GPZDA,204300.000,22,05,2019,00,00*5C
$GPGST,204300.000,,,,,,,*4C
$PSTI,030,204300.000,V,4433.9957717,N,12317.6176961,W,51.140,0.00,0.00,0.00,220519,N,0.0,0.0*2A
$GPGGA,204301.000,4433.9957717,N,12317.6176961,W,0,00,0.0,51.140,M,0.000,M,,0000*47
$GPGLL,4433.9957717,N,12317.6176961,W,204301.000,V,N*5A
$GPGSA,A,1,,,,,,,,,,,,,0.0,0.0,0.0*30
$GLGSA,A,1,,,,,,,,,,,,,0.0,0.0,0.0*2C
$GPGSV,3,1,12,19,64,047,,24,57,266,,06,54,132,15,17,42,053,*72
$GPGSV,3,2,12,12,36,298,16,02,33,179,,28,15,101,,03,05,044,*7C
$GPGSV,3,3,12,32,03,334,,15,02,229,,25,01,293,,22,00,026,*79
$GLGSV,3,1,10,86,66,035,,76,57,134,,77,54,325,,87,49,216,*69
$GLGSV,3,2,10,75,14,138,,85,09,036,,69,09,N,0.0,0.0*2B
$GPGGA,204302.000,4433.9957717,N,12317.6176961,W,0,00,0.0,51.140,M,0.000,M,,0000*44
$GPGLL,4433.9957717,N,12317.6176961,W,204302.000,V,N*59
$GPGSA,A,1,,,,,,,,,,,,,0.0,0.0,0.0*30
$GLGSA,A,1,,,,,,,,,,,,,0.0,0.0,0.0*2C
$GPRMC,204302.000,V,4433.9957717,N,12317.6176961,W,000.00,000.00,220519,,,N*63
$GPVTG,000.00,T,,M,000.00,N,000.00,K,N*32
$GPZDA,204302.000,22,05,2019,00,00*5E
$GPGST,204302.000,,,,,,,*4E
$PSTI,030,204302.000,V,4433.9957717,N,12317.6176961,W,51.140,0.00,0.00,0.00,220519,N,0.0,0.0*28
$GPGGA,204303.000,4433.9957717,N,12317.6176961,W,0,00,0.0,51.140,M,0.000,M,,0000*45
$GPGLL,4433.9957717,N,12317.6176961,W,204303.000,V,N*58
$GPGSA,A,1,,,,,,,,,,,,,0.0,0.0,0.0*30
$GLGSA,A,1,,,,,,,,,,,,,0.0,0.0,0.0*2C
$GPRMC,204303.000,V,4433.9957717,N,12317.6176961,W,000.00,000.00,220519,,,N*62
$GPVTG,000.00,T,,M,000.00,N,000.00,K,N*32
$GPZDA,204303.000,22,05,2019,00,00*5F
$GPGST,204303.000,,,,,,,*4F
$PSTI,030,204303.000,V,4433.9957717,N,12317.6176961,W,51.140,0.00,0.00,0.00,220519,N,0.0,0.0*29
$GPGGA,204304.000,4433.9957717,N,12317.6176961,W,0,00,0.0,51.140,M,0.000,M,,0000*42
$GPGLL,4433.9957717,N,12317.6176961,W,204304.000,V,N*5F
$GPGSA,A,1,,,,,,,,,,,,,0.0,0.0,0.0*30
$GLGSA,A,1,,,,,,,,,,,,,0.0,0.0,0.0*2C
$GPGSV,3,1,12,19,64,047,,24,57,265,,06,54,132,12,17,42,053,*76
$GPGSV,3,2,12,12,36,298,15,02,33,179,,28,15,101,,03,05,044,*7F
$GPGSV,3,3,12,32,03,334,,15,02,229,,25,01,293,,22,00,026,*79
$GLGSV,3,1,10,86,66,035,,76,57,134,,77,54,325,,87,49,216,*69
$GLGSV,3,2,10,75,14,138,,85,09,036,,69,0.0,0.0*2E
$GPGGA,204305.000,4433.9957717,N,12317.6176961,W,0,00,0.0,51.140,M,0.000,M,,0000*43
$GPGLL,4433.9957717,N,12317.6176961,W,204305.000,V,N*5E
$GPGSA,A,1,,,,,,,,,,,,,0.0,0.0,0.0*30
$GLGSA,A,1,,,,,,,,,,,,,0.0,0.0,0.0*2C
$GPRMC,204305.000,V,4433.9957717,N,12317.6176961,W,000.00,000.00,220519,,,N*64
$GPVTG,000.00,T,,M,000.00,N,000.00,K,N*32
$GPZDA,204305.000,22,05,2019,00,00*59
$GPGST,204305.000,,,,,,,*49
$PSTI,030,204305.000,V,4433.9957717,N,12317.6176961,W,51.140,0.00,0.00,0.00,220519,N,0.0,0.0*2F
$GPGGA,204306.000,4433.9957717,N,12317.6176961,W,0,00,0.0,51.140,M,0.000,M,,0000*40
$GPGLL,4433.9957717,N,12317.6176961,W,204306.000,V,N*5D
$GPGSA,A,1,,,,,,,,,,,,,0.0,0.0,0.0*30
$GLGSA,A,1,,,,,,,,,,,,,0.0,0.0,0.0*2C
$GPRMC,204306.000,V,4433.9957717,N,12317.6176961,W,000.00,000.00,220519,,,N*67
$GPVTG,000.00,T,,M,000.00,N,000.00,K,N*32
$GPZDA,204306.000,22,05,2019,00,00*5A
$GPGST,204306.000,,,,,,,*4A
$PSTI,030,204306.000,V,4433.9957717,N,12317.6176961,W,51.140,0.00,0.00,0.00,220519,N,0.0,0.0*2C
$GPGGA,204307.000,4433.9957717,N,12317.6176961,W,0,00,0.0,51.140,M,0.000,M,,0000*41
$GPGLL,4433.9957717,N,12317.6176961,W,204307.000,V,N*5C
$GPGSA,A,1,,,,,,,,,,,,,0.0,0.0,0.0*30
$GLGSA,A,1,,,,,,,,,,,,,0.0,0.0,0.0*2C
$GPGSV,3,1,12,19,64,047,,24,57,265,,06,54,132,11,17,42,053,*75
$GPGSV,3,2,12,12,36,298,15,02,33,179,,28,15,102,,03,05,044,*7C
$GPGSV,3,3,12,32,03,334,,15,02,229,,25,01,293,,22,00,026,*79
$GLGSV,3,1,10,86,66,035,,76,57,134,,77,54,325,,87,49,216,*69
$GLGSV,3,2,10,75,14,138,,85,09,036,,69,020519,N,0.0,0.0*2D
$GPGGA,204308.000,4433.9957717,N,12317.6176961,W,0,00,0.0,51.140,M,0.000,M,,0000*4E
$GPGLL,4433.9957717,N,12317.6176961,W,204308.000,V,N*53
$GPGSA,A,1,,,,,,,,,,,,,0.0,0.0,0.0*30
$GLGSA,A,1,,,,,,,,,,,,,0.0,0.0,0.0*2C
$GPRMC,204308.000,V,4433.9957717,N,12317.6176961,W,000.00,000.00,220519,,,N*69
$GPVTG,000.00,T,,M,000.00,N,000.00,K,N*32
$GPZDA,204308.000,22,05,2019,00,00*54
$GPGST,204308.000,,,,,,,*44
$PSTI,030,204308.000,V,4433.9957717,N,12317.6176961,W,51.140,0.00,0.00,0.00,220519,N,0.0,0.0*22
$GPGGA,204309.000,4433.9957717,N,12317.6176961,W,0,00,0.0,51.140,M,0.000,M,,0000*4F
$GPGLL,4433.9957717,N,12317.6176961,W,204309.000,V,N*52
$GPGSA,A,1,,,,,,,,,,,,,0.0,0.0,0.0*30
$GLGSA,A,1,,,,,,,,,,,,,0.0,0.0,0.0*2C
$GPRMC,204309.000,V,4433.9957717,N,12317.6176961,W,000.00,000.00,220519,,,N*68
$GPVTG,000.00,T,,M,000.00,N,000.00,K,N*32
$GPZDA,204309.000,22,05,2019,00,00*55
$GPGST,204309.000,,,,,,,*45
$PSTI,030,204309.000,V,4433.9957717,N,12317.6176961,W,51.140,0.00,0.00,0.00,220519,N,0.0,0.0*23
$GPGGA,204310.000,4433.9957717,N,12317.6176961,W,0,00,0.0,51.140,M,0.000,M,,0000*47
$GPGLL,4433.9957717,N,12317.6176961,W,204310.000,V,N*5A
$GPGSA,A,1,,,,,,,,,,,,,0.0,0.0,0.0*30
$GLGSA,A,1,,,,,,,,,,,,,0.0,0.0,0.0*2C
$GPGSV,3,1,12,19,64,047,,24,57,265,,06,54,132,11,17,42,053,*75
$GPGSV,3,2,12,12,36,298,17,02,33,179,,28,15,102,,03,05,044,*7E
$GPGSV,3,3,12,32,03,333,,15,02,229,,25,01,293,,22,00,026,*7E
$GLGSV,3,1,10,86,66,035,,76,57,134,,77,54,325,,87,49,216,*69
$GLGSV,3,2,10,75,14,138,,85,09,036,,69,0,0.0*2B
$GPGGA,204311.000,4433.9957717,N,12317.6176961,W,0,00,0.0,51.140,M,0.000,M,,0000*46
$GPGLL,4433.9957717,N,12317.6176961,W,204311.000,V,N*5B
$GPGSA,A,1,,,,,,,,,,,,,0.0,0.0,0.0*30
$GLGSA,A,1,,,,,,,,,,,,,0.0,0.0,0.0*2C
$GPRMC,204311.000,V,4433.9957717,N,12317.6176961,W,000.00,000.00,220519,,,N*61
$GPVTG,000.00,T,,M,000.00,N,000.00,K,N*32
$GPZDA,204311.000,22,05,2019,00,00*5C
$GPGST,204311.000,,,,,,,*4C
$PSTI,030,204311.000,V,4433.9957717,N,12317.6176961,W,51.140,0.00,0.00,0.00,220519,N,0.0,0.0*2A
$GPGGA,204312.000,4433.9957717,N,12317.6176961,W,0,00,0.0,51.140,M,0.000,M,,0000*45
$GPGLL,4433.9957717,N,12317.6176961,W,204312.000,V,N*58
$GPGSA,A,1,,,,,,,,,,,,,0.0,0.0,0.0*30
$GLGSA,A,1,,,,,,,,,,,,,0.0,0.0,0.0*2C
$GPRMC,204312.000,V,4433.9957717,N,12317.6176961,W,000.00,000.00,220519,,,N*62
$GPVTG,000.00,T,,M,000.00,N,000.00,K,N*32
$GPZDA,204312.000,22,05,2019,00,00*5F
$GPGST,204312.000,,,,,,,*4F
$PSTI,030,204312.000,V,4433.9957717,N,12317.6176961,W,51.140,0.00,0.00,0.00,220519,N,0.0,0.0*29
$GPGGA,204313.000,4433.9957717,N,12317.6176961,W,0,00,0.0,51.140,M,0.000,M,,0000*44
$GPGLL,4433.9957717,N,12317.6176961,W,204313.000,V,N*59
$GPGSA,A,1,,,,,,,,,,,,,0.0,0.0,0.0*30
$GLGSA,A,1,,,,,,,,,,,,,0.0,0.0,0.0*2C
$GPGSV,3,1,12,19,64,047,,24,57,265,,06,54,132,13,17,42,053,*77
$GPGSV,3,2,12,12,36,298,16,02,33,179,,28,15,102,,03,05,044,*7F
$GPGSV,3,3,12,32,03,333,,15,02,229,,25,01,293,,22,00,026,*7E
$GLGSV,3,1,10,86,66,035,,76,57,134,,77,54,325,,87,49,216,*69
$GLGSV,3,2,10,75,14,138,,85,09,036,,69,0
$GPGGA,204314.000,4433.9957717,N,12317.6176961,W,0,00,0.0,51.140,M,0.000,M,,0000*43
$GPGLL,4433.9957717,N,12317.6176961,W,204314.000,V,N*5E
$GPGSA,A,1,,,,,,,,,,,,,0.0,0.0,0.0*30
$GLGSA,A,1,,,,,,,,,,,,,0.0,0.0,0.0*2C
$GPRMC,204314.000,V,4433.9957717,N,12317.6176961,W,000.00,000.00,220519,,,N*64
$GPVTG,000.00,T,,M,000.00,N,000.00,K,N*32
$GPZDA,204314.000,22,05,2019,00,00*59
$GPGST,204314.000,,,,,,,*49
$PSTI,030,204314.000,V,4433.9957717,N,12317.6176961,W,51.140,0.00,0.00,0.00,220519,N,0.0,0.0*2F
$GPGGA,204315.000,4433.9957717,N,12317.6176961,W,0,00,0.0,51.140,M,0.000,M,,0000*42
$GPGLL,4433.9957717,N,12317.6176961,W,204315.000,V,N*5F
$GPGSA,A,1,,,,,,,,,,,,,0.0,0.0,0.0*30
$GLGSA,A,1,,,,,,,,,,,,,0.0,0.0,0.0*2C
$GPRMC,204315.000,V,4433.9957717,N,12317.6176961,W,000.00,000.00,220519,,,N*65
$GPVTG,000.00,T,,M,000.00,N,000.00,K,N*32
$GPZDA,204315.000,22,05,2019,00,00*58
$GPGST,204315.000,,,,,,,*48
$PSTI,030,204315.000,V,4433.9957717,N,12317.6176961,W,51.140,0.00,0.00,0.00,220519,N,0.0,0.0*2E
$GPGGA,204316.000,4433.9957717,N,12317.6176961,W,0,00,0.0,51.140,M,0.000,M,,0000*41
$GPGLL,4433.9957717,N,12317.6176961,W,204316.000,V,N*5C
$GPGSA,A,1,,,,,,,,,,,,,0.0,0.0,0.0*30
$GLGSA,A,1,,,,,,,,,,,,,0.0,0.0,0.0*2C
$GPGSV,3,1,12,19,64,047,,24,57,265,,06,54,132,11,17,42,053,*75
$GPGSV,3,2,12,12,36,298,15,02,33,179,,28,15,102,,03,05,044,*7C
$GPGSV,3,3,12,32,03,333,,15,02,229,,25,01,293,,22,00,026,*7E
$GLGSV,3,1,10,86,66,035,,76,57,134,,77,54,325,,87,49,216,*69
$GLGSV,3,2,10,75,14,138,,85,09,036,,69,0,N,0.0,0.0*2D
$GPGGA,204317.000,4433.9957717,N,12317.6176961,W,0,00,0.0,51.140,M,0.000,M,,0000*40
$GPGLL,4433.9957717,N,12317.6176961,W,204317.000,V,N*5D
$GPGSA,A,1,,,,,,,,,,,,,0.0,0.0,0.0*30
$GLGSA,A,1,,,,,,,,,,,,,0.0,0.0,0.0*2C
$GPRMC,204317.000,V,4433.9957717,N,12317.6176961,W,000.00,000.00,220519,,,N*67
$GPVTG,000.00,T,,M,000.00,N,000.00,K,N*32
$GPZDA,204317.000,22,05,2019,00,00*5A
$GPGST,204317.000,,,,,,,*4A
$PSTI,030,204317.000,V,4433.9957717,N,12317.6176961,W,51.140,0.00,0.00,0.00,220519,N,0.0,0.0*2C
$GPGGA,204318.000,4433.9957717,N,12317.6176961,W,0,00,0.0,51.140,M,0.000,M,,0000*4F
$GPGLL,4433.9957717,N,12317.6176961,W,204318.000,V,N*52
$GPGSA,A,1,,,,,,,,,,,,,0.0,0.0,0.0*30
$GLGSA,A,1,,,,,,,,,,,,,0.0,0.0,0.0*2C
$GPRMC,204318.000,V,4433.9957717,N,12317.6176961,W,000.00,000.00,220519,,,N*68
$GPVTG,000.00,T,,M,000.00,N,000.00,K,N*32
$GPZDA,204318.000,22,05,2019,00,00*55
$GPGST,204318.000,,,,,,,*45
$PSTI,030,204318.000,V,4433.9957717,N,12317.6176961,W,51.140,0.00,0.00,0.00,220519,N,0.0,0.0*23
$GPGGA,204319.000,4433.9957717,N,12317.6176961,W,0,00,0.0,51.140,M,0.000,M,,0000*4E
$GPGLL,4433.9957717,N,12317.6176961,W,204319.000,V,N*53
$GPGSA,A,1,,,,,,,,,,,,,0.0,0.0,0.0*30
$GLGSA,A,1,,,,,,,,,,,,,0.0,0.0,0.0*2C
$GPGSV,3,1,12,19,64,047,,24,57,265,,06,54,132,13,17,42,053,*77
$GPGSV,3,2,12,12,36,298,13,02,33,179,,28,15,102,,03,05,044,*7A
$GPGSV,3,3,12,32,03,333,,15,02,229,,25,01,293,,22,00,026,*7E
$GLGSV,3,1,10,86,66,035,,76,57,134,,77,54,325,,87,49,216,*69
$GLGSV,3,2,10,75,14,138,,85,09,036,,69,0,0.0,0.0*22
$GPGGA,204320.000,4433.9957717,N,12317.6176961,W,0,00,0.0,51.140,M,0.000,M,,0000*44
$GPGLL,4433.9957717,N,12317.6176961,W,204320.000,V,N*59
$GPGSA,A,1,,,,,,,,,,,,,0.0,0.0,0.0*30
$GLGSA,A,1,,,,,,,,,,,,,0.0,0.0,0.0*2C
$GPRMC,204320.000,V,4433.9957717,N,12317.6176961,W,000.00,000.00,220519,,,N*63
$GPVTG,000.00,T,,M,000.00,N,000.00,K,N*32
$GPZDA,204320.000,22,05,2019,00,00*5E
$GPGST,204320.000,,,,,,,*4E
$PSTI,030,204320.000,V,4433.9957717,N,12317.6176961,W,51.140,0.00,0.00,0.00,220519,N,0.0,0.0*28
$GPGGA,204321.000,4433.9957717,N,12317.6176961,W,0,00,0.0,51.140,M,0.000,M,,0000*45
$GPGLL,4433.9957717,N,12317.6176961,W,204321.000,V,N*58
$GPGSA,A,1,,,,,,,,,,,,,0.0,0.0,0.0*30
$GLGSA,A,1,,,,,,,,,,,,,0.0,0.0,0.0*2C
$GPRMC,204321.000,V,4433.9957717,N,12317.6176961,W,000.00,000.00,220519,,,N*62
$GPVTG,000.00,T,,M,000.00,N,000.00,K,N*32
$GPZDA,204321.000,22,05,2019,00,00*5F
$GPGST,204321.000,,,,,,,*4F
$PSTI,030,204321.000,V,4433.9957717,N,12317.6176961,W,51.140,0.00,0.00,0.00,220519,N,0.0,0.0*29
$GPGGA,204322.000,4433.9957717,N,12317.6176961,W,0,00,0.0,51.140,M,0.000,M,,0000*46
$GPGLL,4433.9957717,N,12317.6176961,W,204322.000,V,N*5B
$GPGSA,A,1,,,,,,,,,,,,,0.0,0.0,0.0*30
$GLGSA,A,1,,,,,,,,,,,,,0.0,0.0,0.0*2C
$GPGSV,3,1,12,19,64,047,,24,57,265,,06,54,132,13,17,42,053,*77
$GPGSV,3,2,12,12,36,298,12,02,33,179,,28,15,102,,03,05,044,*7B
$GPGSV,3,3,12,32,03,333,,15,02,229,,25,01,293,,22,00,026,*7E
$GLGSV,3,1,10,86,66,035,,76,57,135,,77,54,325,,87,49,216,*68
$GLGSV,3,2,10,75,13,138,,85,09,036,,69,00,0.0*2A
$GPGGA,204323.000,4433.9957717,N,12317.6176961,W,0,00,0.0,51.140,M,0.000,M,,0000*47
$GPGLL,4433.9957717,N,12317.6176961,W,204323.000,V,N*5A
$GPGSA,A,1,,,,,,,,,,,,,0.0,0.0,0.0*30
$GLGSA,A,1,,,,,,,,,,,,,0.0,0.0,0.0*2C
$GPRMC,204323.000,V,4433.9957717,N,12317.6176961,W,000.00,000.00,220519,,,N*60
$GPVTG,000.00,T,,M,000.00,N,000.00,K,N*32
$GPZDA,204323.000,22,05,2019,00,00*5D
$GPGST,204323.000,,,,,,,*4D
$PSTI,030,204323.000,V,4433.9957717,N,12317.6176961,W,51.140,0.00,0.00,0.00,220519,N,0.0,0.0*2B
$GPGGA,204324.000,4433.9957717,N,12317.6176961,W,0,00,0.0,51.140,M,0.000,M,,0000*40
$GPGLL,4433.9957717,N,12317.6176961,W,204324.000,V,N*5D
$GPGSA,A,1,,,,,,,,,,,,,0.0,0.0,0.0*30
$GLGSA,A,1,,,,,,,,,,,,,0.0,0.0,0.0*2C
$GPRMC,204324.000,V,4433.9957717,N,12317.6176961,W,000.00,000.00,220519,,,N*67
$GPVTG,000.00,T,,M,000.00,N,000.00,K,N*32
$GPZDA,204324.000,22,05,2019,00,00*5A
$GPGST,204324.000,,,,,,,*4A
$PSTI,030,204324.000,V,4433.9957717,N,12317.6176961,W,51.140,0.00,0.00,0.00,220519,N,0.0,0.0*2C
$GPGGA,204325.000,4433.9957717,N,12317.6176961,W,0,00,0.0,51.140,M,0.000,M,,0000*41
$GPGLL,4433.9957717,N,12317.6176961,W,204325.000,V,N*5C
$GPGSA,A,1,,,,,,,,,,,,,0.0,0.0,0.0*30
$GLGSA,A,1,,,,,,,,,,,,,0.0,0.0,0.0*2C
$GPGSV,3,1,12,19,64,047,,24,57,265,,06,54,132,11,17,42,053,*75
$GPGSV,3,2,12,12,36,298,13,02,33,179,,28,15,102,,03,05,044,*7A
$GPGSV,3,3,12,32,03,333,,15,02,229,,25,01,293,,22,00,026,*7E
$GLGSV,3,1,10,86,66,035,,76,57,135,,77,55,325,,87,49,216,*69
$GLGSV,3,2,10,75,13,138,,85,09,036,,69,00.0,0.0*2D
$GPGGA,204326.000,4433.9957717,N,12317.6176961,W,0,00,0.0,51.140,M,0.000,M,,0000*42
$GPGLL,4433.9957717,N,12317.6176961,W,204326.000,V,N*5F
$GPGSA,A,1,,,,,,,,,,,,,0.0,0.0,0.0*30
$GLGSA,A,1,,,,,,,,,,,,,0.0,0.0,0.0*2C
$GPRMC,204326.000,V,4433.9957717,N,12317.6176961,W,000.00,000.00,220519,,,N*65
$GPVTG,000.00,T,,M,000.00,N,000.00,K,N*32
$GPZDA,204326.000,22,05,2019,00,00*58
$GPGST,204326.000,,,,,,,*48
$PSTI,030,204326.000,V,4433.9957717,N,12317.6176961,W,51.140,0.00,0.00,0.00,220519,N,0.0,0.0*2E
$GPGGA,204327.000,4433.9957717,N,12317.6176961,W,0,00,0.0,51.140,M,0.000,M,,0000*43
$GPGLL,4433.9957717,N,12317.6176961,W,204327.000,V,N*5E
$GPGSA,A,1,,,,,,,,,,,,,0.0,0.0,0.0*30
$GLGSA,A,1,,,,,,,,,,,,,0.0,0.0,0.0*2C
$GPRMC,204327.000,V,4433.9957717,N,12317.6176961,W,000.00,000.00,220519,,,N*64
$GPVTG,000.00,T,,M,000.00,N,000.00,K,N*32
$GPZDA,204327.000,22,05,2019,00,00*59
$GPGST,204327.000,,,,,,,*49
$PSTI,030,204327.000,V,4433.9957717,N,12317.6176961,W,51.140,0.00,0.00,0.00,220519,N,0.0,0.0*2F
$GPGGA,204328.000,4433.9957717,N,12317.6176961,W,0,00,0.0,51.140,M,0.000,M,,0000*4C
$GPGLL,4433.9957717,N,12317.6176961,W,204328.000,V,N*51
$GPGSA,A,1,,,,,,,,,,,,,0.0,0.0,0.0*30
$GLGSA,A,1,,,,,,,,,,,,,0.0,0.0,0.0*2C
$GPGSV,3,1,12,19,64,047,,24,57,265,,06,54,132,12,17,42,053,19*7E
$GPGSV,3,2,12,12,36,298,14,02,33,179,,28,15,102,,03,05,044,*7D
$GPGSV,3,3,12,32,03,333,,15,02,229,,25,01,293,,22,00,026,*7E
$GLGSV,3,1,10,86,66,035,,76,57,135,,77,55,325,,87,49,216,*69
$GLGSV,3,2,10,75,13,138,,85,09,036,,699,N,0.0,0.0*20
$GPGGA,204329.000,4433.9957717,N,12317.6176961,W,0,00,0.0,51.140,M,0.000,M,,0000*4D
$GPGLL,4433.9957717,N,12317.6176961,W,204329.000,V,N*50
$GPGSA,A,1,,,,,,,,,,,,,0.0,0.0,0.0*30
$GLGSA,A,1,,,,,,,,,,,,,0.0,0.0,0.0*2C
$GPRMC,204329.000,V,4433.9957717,N,12317.6176961,W,000.00,000.00,220519,,,N*6A
$GPVTG,000.00,T,,M,000.00,N,000.00,K,N*32
$GPZDA,204329.000,22,05,2019,00,00*57
$GPGST,204329.000,,,,,,,*47
$PSTI,030,204329.000,V,4433.9957717,N,12317.6176961,W,51.140,0.00,0.00,0.00,220519,N,0.0,0.0*21
$GPGGA,204330.000,4433.9957717,N,12317.6176961,W,0,00,0.0,51.140,M,0.000,M,,0000*45
$GPGLL,4433.9957717,N,12317.6176961,W,204330.000,V,N*58
$GPGSA,A,1,,,,,,,,,,,,,0.0,0.0,0.0*30
$GLGSA,A,1,,,,,,,,,,,,,0.0,0.0,0.0*2C
$GPRMC,204330.000,V,4433.9957717,N,12317.6176961,W,000.00,000.00,220519,,,N*62
$GPVTG,000.00,T,,M,000.00,N,000.00,K,N*32
$GPZDA,204330.000,22,05,2019,00,00*5F
$GPGST,204330.000,,,,,,,*4F
$PSTI,030,204330.000,V,4433.9957717,N,12317.6176961,W,51.140,0.00,0.00,0.00,220519,N,0.0,0.0*29
$GPGGA,204331.000,4433.9957717,N,12317.6176961,W,0,00,0.0,51.140,M,0.000,M,,0000*44
$GPGLL,4433.9957717,N,12317.6176961,W,204331.000,V,N*59
$GPGSA,A,1,,,,,,,,,,,,,0.0,0.0,0.0*30
$GLGSA,A,1,,,,,,,,,,,,,0.0,0.0,0.0*2C
$GPGSV,3,1,12,19,64,047,,24,57,265,,06,54,132,15,17,42,053,18*78
$GPGSV,3,2,12,12,36,298,16,02,33,179,,28,15,102,,03,05,044,*7F
$GPGSV,3,3,12,32,03,333,,15,02,229,,25,01,293,,22,00,026,*7E
$GLGSV,3,1,10,86,66,035,,76,57,135,,77,55,325,,87,49,216,*69
$GLGSV,3,2,10,75,13,138,,85,09,036,,69,N,0.0,0.0*28
$GPGGA,204332.000,4433.9957717,N,12317.6176961,W,0,00,0.0,51.140,M,0.000,M,,0000*47
$GPGLL,4433.9957717,N,12317.6176961,W,204332.000,V,N*5A
$GPGSA,A,1,,,,,,,,,,,,,0.0,0.0,0.0*30
$GLGSA,A,1,,,,,,,,,,,,,0.0,0.0,0.0*2C
$GPRMC,204332.000,V,4433.9957717,N,12317.6176961,W,000.00,000.00,220519,,,N*60
$GPVTG,000.00,T,,M,000.00,N,000.00,K,N*32
$GPZDA,204332.000,22,05,2019,00,00*5D
$GPGST,204332.000,,,,,,,*4D
$PSTI,030,204332.000,V,4433.9957717,N,12317.6176961,W,51.140,0.00,0.00,0.00,220519,N,0.0,0.0*2B
$GPGGA,204333.000,4433.9957717,N,12317.6176961,W,0,00,0.0,51.140,M,0.000,M,,0000*46
$GPGLL,4433.9957717,N,12317.6176961,W,204333.000,V,N*5B
$GPGSA,A,1,,,,,,,,,,,,,0.0,0.0,0.0*30
$GLGSA,A,1,,,,,,,,,,,,,0.0,0.0,0.0*2C
$GPRMC,204333.000,V,4433.9957717,N,12317.6176961,W,000.00,000.00,220519,,,N*61
$GPVTG,000.00,T,,M,000.00,N,000.00,K,N*32
$GPZDA,204333.000,22,05,2019,00,00*5C
$GPGST,204333.000,,,,,,,*4C
$PSTI,030,204333.000,V,4433.9957717,N,12317.6176961,W,51.140,0.00,0.00,0.00,220519,N,0.0,0.0*2A
$GPGGA,204334.000,4433.9957717,N,12317.6176961,W,0,00,0.0,51.140,M,0.000,M,,0000*41
$GPGLL,4433.9957717,N,12317.6176961,W,204334.000,V,N*5C
$GPGSA,A,1,,,,,,,,,,,,,0.0,0.0,0.0*30
$GLGSA,A,1,,,,,,,,,,,,,0.0,0.0,0.0*2C
$GPGSV,3,1,12,19,64,047,,24,57,265,,06,54,132,15,17,42,053,19*79
$GPGSV,3,2,12,12,36,298,15,02,33,179,,28,15,102,,03,05,044,*7C
$GPGSV,3,3,12,32,03,333,,15,02,229,,25,01,293,,22,00,026,*7E
$GLGSV,3,1,10,86,65,035,,76,57,135,,77,55,325,,87,50,216,00*62
$GLGSV,3,2,10,75,13,138,,85,09,036,,0,0.00,220519,N,0.0,0.0*2D
$GPGGA,204335.000,4433.9957717,N,12317.6176961,W,0,00,0.0,51.140,M,0.000,M,,0000*40
$GPGLL,4433.9957717,N,12317.6176961,W,204335.000,V,N*5D
$GPGSA,A,1,,,,,,,,,,,,,0.0,0.0,0.0*30
$GLGSA,A,1,,,,,,,,,,,,,0.0,0.0,0.0*2C
$GPRMC,204335.000,V,4433.9957717,N,12317.6176961,W,000.00,000.00,220519,,,N*67
$GPVTG,000.00,T,,M,000.00,N,000.00,K,N*32
$GPZDA,204335.000,22,05,2019,00,00*5A
$GPGST,204335.000,,,,,,,*4A
$PSTI,030,204335.000,V,4433.9957717,N,12317.6176961,W,51.140,0.00,0.00,0.00,220519,N,0.0,0.0*2C
$GPGGA,204336.000,4433.9957717,N,12317.6176961,W,0,00,0.0,51.140,M,0.000,M,,0000*43
$GPGLL,4433.9957717,N,12317.6176961,W,204336.000,V,N*5E
$GPGSA,A,1,,,,,,,,,,,,,0.0,0.0,0.0*30
$GLGSA,A,1,,,,,,,,,,,,,0.0,0.0,0.0*2C
$GPRMC,204336.000,V,4433.9957717,N,12317.6176961,W,000.00,000.00,220519,,,N*64
$GPVTG,000.00,T,,M,000.00,N,000.00,K,N*32
$GPZDA,204336.000,22,05,2019,00,00*59
$GPGST,204336.000,,,,,,,*49
$PSTI,030,204336.000,V,4433.9957717,N,12317.6176961,W,51.140,0.00,0.00,0.00,220519,N,0.0,0.0*2F
$GPGGA,204337.000,4433.9957717,N,12317.6176961,W,0,00,0.0,51.140,M,0.000,M,,0000*42
$GPGLL,4433.9957717,N,12317.6176961,W,204337.000,V,N*5F
$GPGSA,A,1,,,,,,,,,,,,,0.0,0.0,0.0*30
$GLGSA,A,1,,,,,,,,,,,,,0.0,0.0,0.0*2C
$GPGSV,3,1,12,19,64,047,,24,57,265,,06,54,132,16,17,42,053,19*7A
$GPGSV,3,2,12,12,36,298,11,02,33,179,,28,15,102,,03,05,044,*78
$GPGSV,3,3,12,32,03,333,,15,02,229,,25,01,293,,22,00,026,*7E
$GLGSV,3,1,10,86,65,035,,76,57,135,,77,55,325,,87,50,216,06*64
$GLGSV,3,2,10,75,13,138,,85,09,036,,,220519,N,0.0,0.0*2E
$GPGGA,204338.000,4433.9957717,N,12317.6176961,W,0,00,0.0,51.140,M,0.000,M,,0000*4D
$GPGLL,4433.9957717,N,12317.6176961,W,204338.000,V,N*50
$GPGSA,A,1,,,,,,,,,,,,,0.0,0.0,0.0*30
$GLGSA,A,1,,,,,,,,,,,,,0.0,0.0,0.0*2C
$GPRMC,204338.000,V,4433.9957717,N,12317.6176961,W,000.00,000.00,220519,,,N*6A
$GPVTG,000.00,T,,M,000.00,N,000.00,K,N*32
$GPZDA,204338.000,22,05,2019,00,00*57
$GPGST,204338.000,,,,,,,*47
$PSTI,030,204338.000,V,4433.9957717,N,12317.6176961,W,51.140,0.00,0.00,0.00,220519,N,0.0,0.0*21
$GPGGA,204339.000,4433.9957717,N,12317.6176961,W,0,00,0.0,51.140,M,0.000,M,,0000*4C
$GPGLL,4433.9957717,N,12317.6176961,W,204339.000,V,N*51
$GPGSA,A,1,,,,,,,,,,,,,0.0,0.0,0.0*30
$GLGSA,A,1,,,,,,,,,,,,,0.0,0.0,0.0*2C
$GPRMC,204339.000,V,4433.9957717,N,12317.6176961,W,000.00,000.00,220519,,,N*6B
$GPVTG,000.00,T,,M,000.00,N,000.00,K,N*32
$GPZDA,204339.000,22,05,2019,00,00*56
$GPGST,204339.000,,,,,,,*46
$PSTI,030,204339.000,V,4433.9957717,N,12317.6176961,W,51.140,0.00,0.00,0.00,220519,N,0.0,0.0*20
$GPGGA,204340.000,4433.9957717,N,12317.6176961,W,0,00,0.0,51.140,M,0.000,M,,0000*42
$GPGLL,4433.9957717,N,12317.6176961,W,204340.000,V,N*5F
$GPGSA,A,1,,,,,,,,,,,,,0.0,0.0,0.0*30
$GLGSA,A,1,,,,,,,,,,,,,0.0,0.0,0.0*2C
$GPGSV,3,1,12,19,64,047,,24,57,265,,06,55,132,15,17,42,053,19*78
$GPGSV,3,2,12,12,36,298,11,02,33,179,,28,15,102,,03,05,044,*78
$GPGSV,3,3,12,32,03,333,,15,02,229,,25,01,293,,22,00,026,*7E
$GLGSV,3,1,10,86,65,035,,76,57,135,,77,55,325,,87,50,216,14*67
$GLGSV,3,2,10,75,13,138,,85,09,036,,19,N,0.0,0.0*2E
$GPGGA,204341.000,4433.9957717,N,12317.6176961,W,0,00,0.0,51.140,M,0.000,M,,0000*43
$GPGLL,4433.9957717,N,12317.6176961,W,204341.000,V,N*5E
$GPGSA,A,1,,,,,,,,,,,,,0.0,0.0,0.0*30
$GLGSA,A,1,,,,,,,,,,,,,0.0,0.0,0.0*2C
$GPRMC,204341.000,V,4433.9957717,N,12317.6176961,W,000.00,000.00,220519,,,N*64
$GPVTG,000.00,T,,M,000.00,N,000.00,K,N*32
$GPZDA,204341.000,22,05,2019,00,00*59
$GPGST,204341.000,,,,,,,*49
$PSTI,030,204341.000,V,4433.9957717,N,12317.6176961,W,51.140,0.00,0.00,0.00,220519,N,0.0,0.0*2F
$GPGGA,204342.000,4433.9957717,N,12317.6176961,W,0,00,0.0,51.140,M,0.000,M,,0000*40
$GPGLL,4433.9957717,N,12317.6176961,W,204342.000,V,N*5D
$GPGSA,A,1,,,,,,,,,,,,,0.0,0.0,0.0*30
$GLGSA,A,1,,,,,,,,,,,,,0.0,0.0,0.0*2C
$GPRMC,204342.000,V,4433.9957717,N,12317.6176961,W,000.00,000.00,220519,,,N*67
$GPVTG,000.00,T,,M,000.00,N,000.00,K,N*32
$GPZDA,204342.000,22,05,2019,00,00*5A
$GPGST,204342.000,,,,,,,*4A
$PSTI,030,204342.000,V,4433.9957717,N,12317.6176961,W,51.140,0.00,0.00,0.00,220519,N,0.0,0.0*2C
$GPGGA,204343.000,4433.9957717,N,12317.6176961,W,0,00,0.0,51.140,M,0.000,M,,0000*41
$GPGLL,4433.9957717,N,12317.6176961,W,204343.000,V,N*5C
$GPGSA,A,1,,,,,,,,,,,,,0.0,0.0,0.0*30
$GLGSA,A,1,,,,,,,,,,,,,0.0,0.0,0.0*2C
$GPGSV,3,1,12,19,64,047,,24,57,265,,06,55,132,17,17,42,053,18*7B
$GPGSV,3,2,12,12,36,298,08,02,33,179,,28,15,102,,03,05,044,*70
$GPGSV,3,3,12,32,03,333,,15,02,229,,25,01,293,,22,00,026,*7E
$GLGSV,3,1,10,86,65,035,,76,57,135,,77,55,325,,87,50,216,15*66
$GLGSV,3,2,10,75,13,138,,85,09,036,,0.00,220519,N,0.0,0.0*2D
$GPGGA,204344.000,4433.9957717,N,12317.6176961,W,0,00,0.0,51.140,M,0.000,M,,0000*46
$GPGLL,4433.9957717,N,12317.6176961,W,204344.000,V,N*5B
$GPGSA,A,1,,,,,,,,,,,,,0.0,0.0,0.0*30
$GLGSA,A,1,,,,,,,,,,,,,0.0,0.0,0.0*2C
$GPRMC,204344.000,V,4433.9957717,N,12317.6176961,W,000.00,000.00,220519,,,N*61
$GPVTG,000.00,T,,M,000.00,N,000.00,K,N*32
$GPZDA,204344.000,22,05,2019,00,00*5C
$GPGST,204344.000,,,,,,,*4C
