$GPGGA,031952.000,4433.9981343,N,12317.6168257,W,0,00,4.1,89.761,M,-23.500,M,,0000*5C
$GPGGA,032057.000,4433.9989947,N,12317.6135612,W,5,09,1.1,75.328,M,-23.500,M,,0000*5B
$GPGGA,032100.000,4433.9987766,N,12317.6137996,W,5,11,0.9,75.607,M,-23.500,M,,0000*52
$GPGGA,032107.000,4433.9989835,N,12317.6139893,W,5,07,1.1,74.289,M,-23.500,M,,0000*55
$GPGGA,032112.000,4433.9989324,N,12317.6139920,W,5,10,1.0,73.621,M,-23.500,M,,0000*55
$GPGGA,032115.000,4433.9988827,N,12317.6140125,W,5,10,1.1,73.310,M,-23.500,M,,0000*5E
$GPGGA,032119.000,4433.9987912,N,12317.6140379,W,5,09,1.1,73.168,M,-23.500,M,,0000*54
$GPGGA,032121.000,4433.9987784,N,12317.6140898,W,5,09,1.0,73.110,M,-23.500,M,,0000*54
$GPGGA,032129.000,4433.9985073,N,12317.6142482,W,5,11,0.9,73.464,M,-23.500,M,,0000*53
$GPGGA,032130.000,4433.9984621,N,12317.6142726,W,5,10,0.9,73.539,M,-23.500,M,,0000*5E
$GPGGA,032134.000,4433.9983211,N,12317.6143859,W,5,09,1.0,73.884,M,-23.500,M,,0000*57
$GPGGA,055147.000,4433.9960123,N,12317.6153584,W,0,00,0.0,56.150,M,0.000,M,,0000*42
$GPGGA,062151.000,4433.9958352,N,12317.6156495,W,4,12,0.9,77.332,M,-23.500,M,,0000*58
$GPGGA,082347.000,4433.9950497,N,12317.6176273,W,0,00,0.0,57.640,M,0.000,M,,0000*4C
$GPGGA,085351.000,4433.9958232,N,12317.6156465,W,4,14,1.0,77.340,M,-23.500,M,,0000*50
$GPGGA,105447.000,4433.9967342,N,12317.6173867,W,0,00,0.0,65.290,M,0.000,M,,0000*4C
$GPGGA,112451.000,4433.9958316,N,12317.6156564,W,4,11,1.0,77.340,M,-23.500,M,,0000*5A
$GPGGA,132547.000,4433.9970093,N,12317.6157365,W,0,00,0.0,56.200,M,0.000,M,,0000*46
$GPGGA,135551.000,4433.9958319,N,12317.6156491,W,4,11,1.2,77.357,M,-23.500,M,,0000*5E
$GPGGA,155647.000,4433.9981437,N,12317.6157709,W,0,00,0.0,52.940,M,0.000,M,,0000*45
$GPGGA,160007.000,4433.9959384,N,12317.6152708,W,5,14,1.1,78.136,M,-23.500,M,,0000*57
$GPGGA,162651.000,4433.9958187,N,12317.6156572,W,5,13,0.9,77.354,M,-23.500,M,,0000*5C
$GPGGA,182747.000,4433.9926777,N,12317.6175242,W,0,00,0.0,55.730,M,0.000,M,,0000*40
$GPGGA,185751.000,4433.9955509,N,12317.6169530,W,5,09,1.4,79.871,M,-23.500,M,,0000*54
$GPGGA,205747.000,4433.9939153,N,12317.6167335,W,0,00,0.0,54.430,M,0.000,M,,0000*42
$GPGGA,211441.000,4433.9958243,N,12317.6156487,W,4,09,1.3,77.336,M,-23.500,M,,0000*5D
$GPGGA,212751.000,4433.9958210,N,12317.6156396,W,4,08,1.5,77.368,M,-23.500,M,,0000*51
$GPGGA,232947.000,4433.9956685,N,12317.6152209,W,0,00,0.0,50.240,M,0.000,M,,0000*40
$GPGGA,235951.000,4433.9958196,N,12317.6156428,W,5,12,1.1,77.358,M,-23.500,M,,0000*58
$GPGGA,010220.000,4433.9974218,N,12317.6154615,W,0,00,0.0,51.330,M,0.000,M,,0000*40
$GPGGA,011319.000,4433.9957486,N,12317.6155162,W,5,09,1.2,77.190,M,-23.500,M,,0000*56
$GPGGA,012706.000,4433.9958833,N,12317.6155908,W,5,12,0.9,77.197,M,-23.500,M,,0000*51
$GPGGA,015313.000,4433.9958235,N,12317.6156570,W,4,10,1.2,77.334,M,-23.500,M,,0000*58
$GPGGA,035347.000,4433.9949466,N,12317.6167335,W,0,00,0.0,56.180,M,0.000,M,,0000*4F
$GPGGA,042049.000,4433.9958229,N,12317.6156487,W,4,10,1.2,77.324,M,-23.500,M,,0000*53
$GPGGA,042351.000,4433.9958276,N,12317.6156509,W,4,10,1.2,77.320,M,-23.500,M,,0000*50
$GPGGA,062647.000,4433.9906150,N,12317.6155303,W,0,00,0.0,41.980,M,0.000,M,,0000*49
$GPGGA,065651.000,4433.9958272,N,12317.6156559,W,4,14,0.9,77.340,M,-23.500,M,,0000*59
$GPGGA,085647.000,4433.9968030,N,12317.6152209,W,0,00,0.0,53.900,M,0.000,M,,0000*48
$GPGGA,092651.000,4433.9958243,N,12317.6156468,W,4,15,0.8,77.342,M,-23.500,M,,0000*52
$GPGGA,112947.000,4433.9962873,N,12317.6164585,W,0,00,0.0,51.860,M,0.000,M,,0000*4E
$GPGGA,115951.000,4433.9958191,N,12317.6156473,W,4,12,1.1,77.322,M,-23.500,M,,0000*5C
$GPGGA,140047.000,4433.9954279,N,12317.6154271,W,0,00,0.0,50.830,M,0.000,M,,0000*4E
$GPGGA,143051.000,4433.9958203,N,12317.6156427,W,4,11,1.1,77.358,M,-23.500,M,,0000*51
$GPGGA,163047.000,4433.9956685,N,12317.6162522,W,0,00,0.0,53.110,M,0.000,M,,0000*46
$GPGGA,164754.000,4433.9958220,N,12317.6156490,W,4,13,1.2,77.354,M,-23.500,M,,0000*56
$GPGGA,170051.000,4433.9958260,N,12317.6156491,W,4,09,1.2,77.372,M,-23.500,M,,0000*5B
$GPGGA,190247.000,4433.9954623,N,12317.6161835,W,0,00,0.0,43.760,M,0.000,M,,0000*4E
$GPGGA,193251.000,4433.9958350,N,12317.6156541,W,4,08,1.8,77.316,M,-23.500,M,,0000*53
$GPGGA,213447.000,4433.9978343,N,12317.6137770,W,0,00,0.0,47.330,M,0.000,M,,0000*45
$GPGGA,214306.000,4433.9958112,N,12317.6151913,W,5,11,1.0,77.506,M,-23.500,M,,0000*52
$GPGGA,220451.000,4433.9959103,N,12317.6152835,W,5,11,1.1,77.084,M,-23.500,M,,0000*59
$GPGGA,000447.000,4433.9977656,N,12317.6165272,W,0,00,0.0,51.790,M,0.000,M,,0000*42
$GPGGA,001946.000,4433.9958339,N,12317.6156462,W,4,10,1.0,77.284,M,-23.500,M,,0000*50
$GPGGA,003451.000,4433.9958313,N,12317.6156570,W,4,13,1.0,77.309,M,-23.500,M,,0000*54
$GPGGA,013816.000,4433.9974905,N,12317.6166991,W,0,00,0.0,52.220,M,0.000,M,,0000*4A
$GPGGA,020821.000,4433.9953644,N,12317.6158226,W,5,15,0.9,77.382,M,-23.500,M,,0000*54
$GPGGA,040947.000,4433.9940528,N,12317.6175929,W,0,00,0.0,50.720,M,0.000,M,,0000*4B
$GPGGA,043951.000,4433.9953589,N,12317.6158163,W,5,13,1.0,77.402,M,-23.500,M,,0000*56
$GPGGA,064047.000,4433.9961154,N,12317.6174210,W,0,00,0.0,53.650,M,0.000,M,,0000*4D
$GPGGA,065222.000,4433.9953686,N,12317.6156901,W,5,18,0.8,77.366,M,-23.500,M,,0000*54
$GPGGA,065223.000,4433.9953695,N,12317.6156877,W,5,18,0.8,77.358,M,-23.500,M,,0000*5A
$GPGGA,071051.000,4433.9953537,N,12317.6157607,W,5,19,0.7,77.410,M,-23.500,M,,0000*5E
$GPGGA,083608.000,4433.9956685,N,12317.6158741,W,0,00,0.0,51.950,M,0.000,M,,0000*44
$GPGGA,090612.000,4433.9953683,N,12317.6158272,W,4,16,0.8,77.383,M,-23.500,M,,0000*59
$GPGGA,110647.000,4433.9955310,N,12317.6158053,W,0,00,0.0,57.470,M,0.000,M,,0000*43
$GPGGA,113651.000,4433.9953558,N,12317.6158405,W,4,13,0.9,77.386,M,-23.500,M,,0000*56
$GPGGA,133747.000,4433.9961498,N,12317.6156678,W,0,00,0.0,55.290,M,0.000,M,,0000*48
$GPGGA,140751.000,4433.9953662,N,12317.6158208,W,5,12,1.1,77.392,M,-23.500,M,,0000*5C
$GPGGA,141545.000,4433.9951873,N,12317.6173179,W,0,00,0.0,52.840,M,0.000,M,,0000*46
$GPGGA,141816.000,4433.9948935,N,12317.6175854,W,5,14,0.9,77.152,M,-23.500,M,,0000*5B
$GPGGA,144550.000,4433.9953822,N,12317.6158973,W,5,14,0.8,77.459,M,-23.500,M,,0000*58
$GPGGA,164547.000,4433.9946716,N,12317.6162522,W,0,00,0.0,50.730,M,0.000,M,,0000*49
$GPGGA,171318.000,4433.9953758,N,12317.6158220,W,4,16,0.8,77.336,M,-23.500,M,,0000*56
$GPGGA,171551.000,4433.9953718,N,12317.6158251,W,5,18,0.8,77.331,M,-23.500,M,,0000*57
$GPGGA,191747.000,4433.9963561,N,12317.6159084,W,0,00,0.0,55.600,M,0.000,M,,0000*42
$GPGGA,194751.000,4433.9953756,N,12317.6158135,W,4,10,1.1,77.350,M,-23.500,M,,0000*53
$GPGGA,214747.000,4433.9942591,N,12317.6173179,W,0,00,0.0,51.210,M,0.000,M,,0000*4A
$GPGGA,220327.000,4433.9953444,N,12317.6160752,W,5,13,0.9,77.470,M,-23.500,M,,0000*58
$GPGGA,221751.000,4433.9953670,N,12317.6158082,W,4,11,1.0,77.383,M,-23.500,M,,0000*58
$GPGGA,001947.000,4433.9951529,N,12317.6160116,W,0,00,0.0,57.400,M,0.000,M,,0000*49
$GPGGA,002409.000,4433.9953659,N,12317.6158218,W,4,13,0.9,77.366,M,-23.500,M,,0000*5E
$GPGGA,004951.000,4433.9953753,N,12317.6158276,W,4,12,0.8,77.332,M,-23.500,M,,0000*5A
$GPGGA,025247.000,4433.9943966,N,12317.6144646,W,0,00,0.0,54.990,M,0.000,M,,0000*43
$GPGGA,032251.000,4433.9953707,N,12317.6158348,W,4,14,0.8,77.359,M,-23.500,M,,0000*52
$GPGGA,052547.000,4433.9959779,N,12317.6165272,W,0,00,0.0,53.220,M,0.000,M,,0000*48
$GPGGA,055551.000,4433.9953710,N,12317.6158315,W,4,14,0.8,77.376,M,-23.500,M,,0000*57
$GPGGA,072031.000,4433.9961154,N,12317.6174554,W,0,00,0.0,52.790,M,0.000,M,,0000*40
$GPGGA,072056.000,4434.0010960,N,12317.6223766,W,0,00,99.9,91.989,M,-23.500,M,,0000*64
$GPGGA,072102.000,4433.9977638,N,12317.6086346,W,2,07,2.3,56.425,M,-23.500,M,,0000*56
$GPGGA,072104.000,1741.0652248,N,09849.4543688,W,1,11,1.3,149433648.000,M,-8.900,M,,0000*52
$GPGGA,072116.000,1741.0652248,N,09849.4543688,W,0,00,1.3,149433648.000,M,-8.900,M,,0000*50
$GPGGA,072118.000,1741.0652248,N,09849.4543688,W,0,00,1.3,149433648.000,M,-8.900,M,,0000*5E
